"nome palestra","discipline","indirizzo","telefono","orari di apertura","pagina web","lat","long"
"101 running - servizi per lo sport","Fitness","Corso Sempione, 101, 21013 Gallarate VA, Italia","+39 345 707 7310","Orari da verificare","","45.665604999999999","8.7723259999999996"
"11teamsports Lugano","Fitness","Quartiere Maghetti 10, 6900 Lugano, Svizzera","+41 91 226 27 84","Lun chiuso | Mar chiuso | Mer chiuso | Gio chiuso | Ven chiuso | Sab 10-18 | Dom chiuso","https://www.instagram.com/11ts_lugano/","46.005208000000003","8.953538"
"1CYCLE","Fitness","Via S. Gottardo 99, 6900 Massagno, Svizzera","+41 78 958 52 82","Lun 08-19:30 | Mar 06:30-19:30 | Mer 08-19:30 | Gio 08-19:30 | Ven 06:30-19:30 | Sab 09:30-12:30 | Dom chiuso","http://1cycle.ch/","46.013652","8.9427590000000006"
"1to1 Fitness","Fitness","Piazza A. Manzoni, 12, 21052 Busto Arsizio VA, Italia","+39 0331 188 2519","Lun 07-21:30 | Mar 07-21 | Mer 07-21 | Gio 07-21 | Ven 07-21 | Sab 08-20 | Dom chiuso","https://www.1to1fitness.it/","45.611555000000003","8.8459389999999996"
"1to1 Fitness","Fitness","Viale Milano, 2, 21013 Gallarate VA, Italia","+39 0331 148 9128","Lun 07-21 | Mar 07-21 | Mer 07-21 | Gio 07-21 | Ven 07-21 | Sab 08-20 | Dom chiuso","https://www.1to1fitness.it/","45.656647999999997","8.7989610000000003"
"20' Training Lab Busto Arsizio","Fitness","Via Isonzo, 22, 21052 Busto Arsizio VA, Italia","+39 366 712 2502","Lun chiuso | Mar chiuso | Mer chiuso | Gio chiuso | Ven chiuso | Sab 08-16 | Dom chiuso","http://www.20traininglab.it/","45.617167999999999","8.845523"
"20' Training Lab Gallarate","Fitness","Vle Vittorio Veneto, 8/D, 21013 Gallarate VA, Italia","+39 366 712 2502","Lun 07-21 | Mar 07-21 | Mer 07-21 | Gio 07-21 | Ven 07-21 | Sab 08-16 | Dom chiuso","https://www.20traininglab.it/","45.667721999999998","8.7965630000000008"
"20' Training Lab Saronno","Fitness","Via C. B. Cavour, 71, 21047 Saronno VA, Italia","+39 331 404 4444","Lun 07-21 | Mar 07-21 | Mer 07-21 | Gio 07-21 | Ven 07-21 | Sab 08-16 | Dom chiuso","https://www.20traininglab.it/","45.627626999999997","9.0350000000000001"
"20' Training Lab Varese","Fitness","Viale Luigi Borri, 53, 21100 Varese VA, Italia","+39 366 712 2502","Lun 07-21 | Mar 07-21 | Mer 07-21 | Gio 07-21 | Ven 07-21 | Sab 08-16 | Dom chiuso","https://www.20traininglab.it/","45.808352999999997","8.8370010000000008"
"A. S. D. Il Dojo Nippon Kempo Club","Fitness","Via A. De Gasperi, 26, 21012 Cassano Magnago VA, Italia","+39 338 504 7839","Lun chiuso | Mar chiuso | Mer chiuso | Gio chiuso | Ven chiuso | Sab chiuso | Dom chiuso","http://www.ildojo.it/","45.676298000000003","8.834721"
"A.S.D. Arashi 21100","Fitness","Via Donatello, 1, 21100 Varese VA, Italia","+39 392 811 1970","Lun 18-21 | Mar 19-20 | Mer 18-21 | Gio chiuso | Ven 16-17 | Sab 12:30-16 | Dom chiuso","http://www.arashi21100.it/","45.807833000000002","8.8355429999999995"
"A.S.D. Black Tiger","Fitness","Via A. De Gasperi, 28, 21012 Cassano Magnago VA, Italia","+39 393 769 7303","Lun 17-22 | Mar 17-22 | Mer 17-22 | Gio 17-22 | Ven 17-22 | Sab chiuso | Dom chiuso","https://www.instagram.com/blacktigerasdigsh=MW4yZ2Z3ZHV4cnJtcw==","45.676551000000003","8.8350179999999998"
"A.S.D. BUSTO 81 CALCIO","Fitness","Via Valle Olona, 12, 21052 Busto Arsizio VA, Italia","+39 0331 181 1028","Orari da verificare","https://www.busto81calcio.it/","45.616076999999997","8.8706800000000001"
"A.S.D. Eagles","Fitness","Via Armando Diaz, 23, 21040 Caronno Varesino VA, Italia","+39 345 342 9040","Lun 16:30-23 | Mar 16:30-23 | Mer 16:30-23 | Gio 16:30-23 | Ven 16:30-23 | Sab 14:30-19:30 | Dom 14:30-18:30","","45.741608999999997","8.8268559999999994"
"A.S.D. Fc Tradate","Fitness","Via Europa, 1, 21049 Tradate VA, Italia","+39 0331 811049","Lun 00:00-24:00 | Mar 00:00-24:00 | Mer 00:00-24:00 | Gio 00:00-24:00 | Ven 00:00-24:00 | Sab 00:00-24:00 | Dom 00:00-24:00","https://asdfctradatecalcio.it.gg/","45.704895999999998","8.9015799999999992"
"A.S.D. FINK NIPPON KEMPO","Fitness","Via Donatello, 1, 21100 Varese VA, Italia","","Lun 09:30-11:30 | Mar 09:30-11:30 | Mer 09:30-11:30 | Gio 09:30-11:30 | Ven 09:30-11:30 | Sab chiuso | Dom chiuso","https://www.asdfink.it/","45.807833000000002","8.8355429999999995"
"A.S.D. Ju-Jitsu Club Varese","Fitness","Via Pietro Micca, 20, 21100 Varese VA, Italia","+39 333 523 0277","Lun chiuso | Mar 18:15-21 | Mer chiuso | Gio chiuso | Ven 18:15-21 | Sab chiuso | Dom chiuso","http://www.jujitsuclubvarese.it/","45.813814000000001","8.8113960000000002"
"A.S.D. Mantuano Karate Team","Karate","Via Niccolo' Machiavelli, 21049 Tradate VA, Italia","+39 392 376 2539","Lun chiuso | Mar chiuso | Mer chiuso | Gio chiuso | Ven chiuso | Sab 15-17 | Dom chiuso","https://m.facebook.com/karatemantuano","45.709046999999998","8.9133530000000007"
"A.S.D. M-Cube Smart Fitness","Fitness","Via Praderio, 2, 21013 Gallarate VA, Italia","+39 347 650 6990","Lun 13-14, 19-20 | Mar 09-11:30, 20-21 | Mer 13-14, 19-21:30 | Gio 09-11:30, 20-21 | Ven 13-14, 19-21:30 | Sab 13-14 | Dom 09-10","https://mcubesmartfitness.webnode.it/","45.660885999999998","8.8060779999999994"
"A.S.D. Nuoto Club Gallarate","Nuoto","Via M. Buonarroti, 14, 21013 Gallarate VA, Italia","+39 0331 774033","Orari da verificare","","45.652422999999999","8.7960469999999997"
"A.S.D. Sawayama","Fitness","Via dei Pradacci, 21040 Tradate VA, Italia","","Lun chiuso | Mar 20:30-22 | Mer chiuso | Gio chiuso | Ven 20:30-22 | Sab chiuso | Dom chiuso","","45.705035000000002","8.9031870000000009"
"A.S.D. scuola nuoto bustese","Nuoto","Viale Biagio Gabardi, 21052 Busto Arsizio VA, Italia","+39 0331 329946","Lun 09-21 | Mar 07-21 | Mer 09-21 | Gio 07-21 | Ven 09-21 | Sab 09-18 | Dom chiuso","http://www.scuolanuotobustese.it/","45.598970999999999","8.8720669999999995"
"A.S.D. TC LUINO","Fitness","Via Lugano, 41, 21016 Luino VA, Italia","+39 349 760 2907","Lun 09-22 | Mar 09-22 | Mer 09-22 | Gio 09-22 | Ven 09-22 | Sab 09-20 | Dom 09-20","http://www.tennispadellagomaggiore.it/","46.005094999999997","8.7538579999999993"
"A.S.D. Valceresio A. Audax","Fitness","Via B. Giacomini, 14, 21051 Arcisate VA, Italia","+39 0332 473319","Orari da verificare","https://www.asdvalceresio.it/","45.859954999999999","8.869624"
"A.S.D. Yogamore","Yoga","Viale Sicilia, 6, 21052 Busto Arsizio VA, Italia","+39 340 729 4112","Orari da verificare","https://yogamore.it/","45.608007999999998","8.8324029999999993"
"éSport Caronno Pertusella","Fitness","Via Bergamo, 605, 21042 Caronno Pertusella VA, Italia","+39 02 4936 0635","Lun 06-22 | Mar 06-22 | Mer 06-22 | Gio 06-22 | Ven 06-22 | Sab 09-18 | Dom 09-14","https://www.esportpalestre.it/","45.591942000000003","9.0435409999999994"
"AA Special Training","Fitness","Via Giovanni Maraini 15/a, 6900 Pregassona, Svizzera","+41 76 384 05 89","Lun 07-21 | Mar 07-21 | Mer 07-21 | Gio 07-21 | Ven 07-21 | Sab 07-17 | Dom chiuso","http://aaspecialtraining.ch/","46.026896999999998","8.9678740000000001"
"AA Special Training","Fitness","Via Pasquale Lucchini 7, 6900 Lugano, Svizzera","+41 76 384 05 89","Lun 07-21 | Mar 07-21 | Mer 07-21 | Gio 07-21 | Ven 07-21 | Sab 07-17 | Dom chiuso","https://aaspecialtraining.ch/","46.006346","8.957152"
"Accademia della scherma ""A. Felli""","Scherma | Fitness","Via Luigi Galvani, 2, 21052 Busto Arsizio VA, Italia","","Orari da verificare","https://www.propatriascherma.it/","45.616142000000004","8.8462060000000005"
"Acinque Ice Arena - Palaghiaccio di Varese","Fitness","Via Francesco Albani, 33, 21100 Varese VA, Italia","+39 0332 157 5576","Lun 06-21:30 | Mar 06-21:30 | Mer 06-21:30 | Gio 06-21:30 | Ven 06-00 | Sab 08-18:30, 21:10-00 | Dom 08-13, 15:10-18:50","https://www.acinqueicearena.com/","45.832729","8.8256639999999997"
"A-CLUB","Fitness","Via centro Sportivo 5, 6942 Savosa, Svizzera","+41 91 966 13 13","Lun chiuso | Mar chiuso | Mer chiuso | Gio chiuso | Ven chiuso | Sab 07-19 | Dom chiuso","http://www.a-club.ch/","46.017017000000003","8.9375160000000005"
"Acorpolibero","Pilates","Via Varrone 5A, 6500 Bellinzona, Svizzera","+41 79 745 16 39","Lun chiuso | Mar 09-20 | Mer 09-20 | Gio 09-20 | Ven 09-12 | Sab 00:00-24:00 | Dom chiuso","","46.200296999999999","9.0294299999999996"
"Acquablue","Fitness","Via Carlo Rossini, 60, 21049 Tradate VA, Italia","+39 393 178 5811","Lun 08:30-12:30 | Mar 08:30-12:30, 15-18:30 | Mer 08:30-12:30, 15-18:30 | Gio 08:30-12:30, 15-18:30 | Ven 08:30-12:30, 15-18:30 | Sab chiuso | Dom chiuso","http://acquablue.it/","45.720801999999999","8.8900810000000003"
"ACQUAESSENIA SOCIETA' SPORTIVA DILETTANTISTICA","Nuoto","Via Magenta, 3, 21013 Gallarate VA, Italia","+39 0331 774471","Lun 08-20 | Mar 08-20 | Mer 08-20 | Gio 08-20 | Ven 08-20 | Sab 08-16:30 | Dom 08:30-12","http://www.acquaebenessere.it/","45.655985000000001","8.7946950000000008"
"Acquaplan SA - Costruzione piscine","Fitness","Via Probello 1, 6963 Pregassona, Svizzera","+41 91 971 31 31","Lun 08-12, 13:30-17 | Mar 08-12, 13:30-17 | Mer 08-12, 13:30-17 | Gio 08-12, 13:30-17 | Ven 08-12, 13:30-17 | Sab chiuso | Dom chiuso","http://www.acquaplan.ch/","46.019131999999999","8.9758680000000002"
"Acquasport Varese ASD","Fitness","Via Fidanza, 10, 21025 Comerio VA, Italia","+39 375 555 2666","Lun 10-19:30 | Mar 10-19:30 | Mer 10-19:30 | Gio 10-19:30 | Ven 10-19:30 | Sab 10-19:30 | Dom 10-19:30","http://blogosfera.varesenews.it/vacanzeavarese/index-page_id=11.html","45.840682999999999","8.7383520000000008"
"Action Fit Gallarate","Fitness","Viale Milano, 155, 21013 Gallarate VA, Italia","+39 351 319 1509","Lun 06-00 | Mar 06-00 | Mer 06-00 | Gio 06-00 | Ven 06-00 | Sab 06-00 | Dom 06-00","https://www.actionfit.it/","45.645933999999997","8.8179940000000006"
"Activ Fitness Bellinzona","Fitness","Viale Stazione 18, 6500 Bellinzona, Svizzera","+41 91 821 78 70","Lun chiuso | Mar chiuso | Mer chiuso | Gio chiuso | Ven chiuso | Sab 09-18 | Dom chiuso","https://www.activfitness.ch/studios/activ-fitness-bellinzona/","46.193615999999999","9.0262689999999992"
"Activ Fitness Giubiasco","Fitness","Via Campagna 1, 6512 Giubiasco, Svizzera","+41 91 821 78 80","Lun 06:30-21:30 | Mar 06:30-21:30 | Mer 06:30-21:30 | Gio 06:30-21:30 | Ven 06:30-21:30 | Sab 08-17 | Dom 08-17","https://www.activfitness.ch/studios/activ-fitness-giubiasco/","46.167707999999998","9.0018600000000006"
"Activ Fitness Losone","Fitness","Via dei Pioppi 2a, 6616 Losone, Svizzera","+41 91 821 77 88","Lun 06-22 | Mar 06-22 | Mer 06-22 | Gio 06-22 | Ven 06-22 | Sab 09-19 | Dom 09-19","https://www.activfitness.ch/studios/activ-fitness-losone/","46.166432999999998","8.7732039999999998"
"Activ Fitness Lugano","Fitness","Via Pretorio 15, 6900 Lugano, Svizzera","+41 91 821 70 90","Lun 06:30-21:30 | Mar 06:30-21:30 | Mer 06:30-21:30 | Gio 06:30-21:30 | Ven 06:30-21:30 | Sab 09-18 | Dom 09-18","https://www.activfitness.ch/studios/activ-fitness-lugano/","46.007041999999998","8.9521149999999992"
"Activ Fitness Mendrisio","Fitness","Via Luigi Lavizzari 2, 6850 Mendrisio, Svizzera","+41 91 821 75 50","Lun 06:30-21:30 | Mar 06:30-21:30 | Mer 06:30-21:30 | Gio 06:30-21:30 | Ven 06:30-21:30 | Sab 09-18 | Dom 09-18","https://www.activfitness.ch/studios/activ-fitness-mendrisio/","45.870178000000003","8.9859799999999996"
"Activ Fitness Riazzino","Fitness","Via al Pizzante 12, 6595 Lavertezzo, Svizzera","+41 91 821 78 88","Lun 06:30-21:30 | Mar 06:30-21:30 | Mer 06:30-21:30 | Gio 06:30-21:30 | Ven 06:30-21:30 | Sab 08:30-17 | Dom 08:30-17","https://www.activfitness.ch/studios/activ-fitness-riazzino/","46.173678000000002","8.8965359999999993"
"Activ Fitness Serfontana","Fitness","Viale Serfontana 20, 6834 Morbio Inferiore, Svizzera","+41 91 821 74 80","Lun chiuso | Mar chiuso | Mer chiuso | Gio chiuso | Ven chiuso | Sab 09-18:30 | Dom chiuso","https://www.activfitness.ch/studios/activ-fitness-serfontana/","45.845232000000003","9.015784"
"ACTIV FITNESS Ticino SA (Amministrazione)","Fitness","Via Serrai 1, 6592 Sant'Antonino, Svizzera","+41 91 850 86 00","Lun 09-11:30 | Mar 09-11:30 | Mer chiuso | Gio 09-11:30 | Ven 09-11:30 | Sab chiuso | Dom chiuso","https://www.activfitness.ch/it/","46.154977000000002","8.9602570000000004"
"Activ Fitness Vezia","Fitness","Via S. Gottardo 5, 6943 Vezia, Svizzera","+41 91 821 73 10","Lun 06:30-21:30 | Mar 06:30-21:30 | Mer 06:30-21:30 | Gio 06:30-21:30 | Ven 06:30-21:30 | Sab 08-17 | Dom 08-17","https://www.activfitness.ch/studios/activ-fitness-vezia/","46.021403999999997","8.9366059999999994"
"Ad Oriente,Yoga, Aikido & Benessere","Aikido | Yoga | Fitness","Via Campo dei Fiori, 1, 21010 Cardano al Campo VA, Italia","+39 388 563 8692","Lun 17-21:30 | Mar 17-21:30 | Mer 17-21 | Gio 17-21:30 | Ven chiuso | Sab 10-12 | Dom chiuso","http://www.palestracardano.it/","45.637824999999999","8.7798689999999997"
"Adhd Life Coach Italia","Fitness","Via Giuseppe Piermarini, 3, 21100 Varese VA, Italia","+39 375 777 5544","Lun 08-20 | Mar 08-20 | Mer 08-20 | Gio 08-20 | Ven 08-20 | Sab chiuso | Dom chiuso","https://www.adhdlifecoachitalia.it/","45.834263999999997","8.8253109999999992"
"Öffentliche Fitnessgeräte","Fitness","Via Gioacchino Respini 8, 6600 Locarno, Svizzera","","Lun 00:00-24:00 | Mar 00:00-24:00 | Mer 00:00-24:00 | Gio 00:00-24:00 | Ven 00:00-24:00 | Sab 00:00-24:00 | Dom 00:00-24:00","","46.160184999999998","8.8038380000000007"
"Agno Stand Up Paddle","Fitness","Parco comunale AL LAGO di Agno, Via Acquacalda, 6982 Agno, Svizzera","+41 79 388 62 69","Lun 10-20 | Mar 10-20 | Mer 10-20 | Gio 10-20 | Ven 10-20 | Sab 10-20 | Dom 10-20","http://www.luganosup.com/","45.992483","8.9012619999999991"
"Aikido Bellinzona","Aikido","Via Saleggi 33, 6500 Bellinzona, Svizzera","+41 79 621 72 29","Lun chiuso | Mar chiuso | Mer chiuso | Gio chiuso | Ven chiuso | Sab chiuso | Dom chiuso","https://aikidobellinzona.ch/","46.181004999999999","9.014087"
"Aikido Buikukai Varese","Aikido","c/o Società Varesina di Ginnastica e Scherma a.s.d, Via Donatello, 1, 21100 Varese VA, Italia","+39 0332 831470","Lun chiuso | Mar 20:30-22 | Mer chiuso | Gio chiuso | Ven 20:30-22 | Sab chiuso | Dom chiuso","https://www.aikidovarese.it/","45.807805999999999","8.835426"
"Al Pradello","Fitness","Via Pradello 8, 6932 Breganzona, Svizzera","+41 91 966 23 53","Lun 10:30-13:30 | Mar 10:30-19:30 | Mer 10:30-19:30 | Gio 10:30-19:30 | Ven 10:30-19:30 | Sab 09-19:30 | Dom 10:30-13:30","https://www.tcpradello.ch/","46.010108000000002","8.9259570000000004"
"Alessandro Avetti Pilates","Pilates","Via Matteotti, 84, 21020 Casciago VA, Italia","+39 0332 156 3853","Lun 08:30-20:30 | Mar 08:30-20:30 | Mer 08:30-20:30 | Gio 08:30-20:30 | Ven 08:30-20:30 | Sab 09-12:30 | Dom chiuso","http://www.alessandroavettipilates.com/","45.836106999999998","8.7843079999999993"
"Alessandro Gattico Personal Trainer","Fitness","PTROOM, via monsignor proserpio, Via Francesco Crispi, 13, 21100 Varese VA, Italia","+39 347 199 3460","Lun 06-21 | Mar 06-21 | Mer 06-21 | Gio 06-21 | Ven 06-21 | Sab 07-13:30 | Dom chiuso","https://www.alessandrogatticopt.com/","45.827047","8.8089849999999998"
"Alessio Merelli - Personal Fitness Trainer - Coach","Fitness","Via Cesare Correnti, 2, 21100 Varese VA, Italia","","Orari da verificare","","45.797759999999997","8.8428810000000002"
"Alice Panciera","Fitness","ghiringhelli 18, 6500 Bellinzona, Svizzera","","Lun 00:00-24:00 | Mar 00:00-24:00 | Mer 00:00-24:00 | Gio 00:00-24:00 | Ven 00:00-24:00 | Sab 00:00-24:00 | Dom 00:00-24:00","https://evergreenlife.io/alicepanciera","46.193851000000002","9.0237700000000007"
"AliZéStudio di Vera Viligiardi - Fitness with Vera","Fitness","Via Giuseppe Buffi 6, 6850 Mendrisio, Svizzera","+41 79 450 17 68","Lun 18-21 | Mar 18-21 | Mer 18-21 | Gio chiuso | Ven 18-21 | Sab 14-21 | Dom chiuso","https://www.fitnesswithvera.ch/","45.865878000000002","8.9841250000000006"
"Allegra Moda Curvy","Fitness","Corso Paolo Bernacchi, 118, 21049 Tradate VA, Italia","+39 0331 028698","Lun chiuso | Mar 10-12:30, 15:30-19 | Mer 10-12:30, 15:30-19 | Gio 10-12:30, 15:30-19 | Ven 10-12:30, 15:30-19 | Sab 10-12:30, 15:30-19 | Dom chiuso","http://www.allegramodacurvy.it/","45.711886","8.9066580000000002"
"Alma Botánica- Holistic Studio Massage","Fitness","Str. della Brima 6, 6612 Ascona, Svizzera","+41 78 318 90 48","Orari da verificare","https://www.almabotanica.ch/","46.158470000000001","8.7768370000000004"
"Alpha Boulder","Fitness","Viale Stazione 19, 6512 Giubiasco, Svizzera","+41 79 672 82 94","Lun chiuso | Mar chiuso | Mer chiuso | Gio chiuso | Ven chiuso | Sab 14-19 | Dom chiuso","https://www.alphaboulder.ch/","46.172781000000001","9.0031649999999992"
"Alya Resort","Fitness","Via Peloritana, 28, 20024 Garbagnate Milanese MI, Italia","+39 02 9902 7051","Lun 09-21:30 | Mar 09-21:30 | Mer 09-21:30 | Gio 09-21:30 | Ven 09-21:30 | Sab 09-21:30 | Dom 09-13","https://www.alyaresort.it/","45.573149000000001","9.0690690000000007"
"AMAFIT Pilates","Pilates","Via XI Febbraio, 2A, 21052 Busto Arsizio VA, Italia","+39 379 104 0300","Lun 09-21 | Mar 09-20 | Mer 09-20 | Gio 09-21 | Ven 09-20 | Sab chiuso | Dom chiuso","http://amafitpilates.it/","45.598402999999998","8.8457450000000009"
"Amatori Tradate Rugby Club","Fitness","Via Alfio Fontana, snc, 21049 Tradate VA, Italia","","Lun 18-22 | Mar 18-22 | Mer 18-22 | Gio 18-22 | Ven 18-22 | Sab 14-22 | Dom 08-22","http://www.tradaterugby.it/","45.703989999999997","8.902571"
"Ambiluna_yoga","Yoga","Via Pontico Virunio, 6850 Mendrisio, Svizzera","+41 76 382 55 14","Orari da verificare","","45.869523999999998","8.9869489999999992"
"anantayoga","Yoga","Via Pico 28, 6900 Lugano, Svizzera","+41 79 935 58 83","Lun chiuso | Mar 19-20:30 | Mer 09:30-11, 18:15-19:45 | Gio 14:15-15:45, 17:15-18:45 | Ven chiuso | Sab 10-12 | Dom chiuso","http://www.anantayoga.yoga/","46.008513999999998","8.9693620000000003"
"ANDREA FONTANELLA","Fitness","Via della Valle, 10, 21020 Casciago VA, Italia","+39 346 131 8140","Orari da verificare","http://andreafontanella.com/","45.839312999999997","8.7804369999999992"
"Andy Personal Trainer & Coach Nutrizionale","Fitness","Via Giacomo e Filippo Ciani 14, 6900 Lugano, Svizzera","+41 79 270 13 64","Lun 06-22 | Mar 06-22 | Mer 06-22 | Gio 06-22 | Ven 06-20 | Sab 08-13 | Dom chiuso","https://www.andypersonaltrainer.net/","46.014657999999997","8.9607759999999992"
"ANGEL E DEVIL ACADEMY A.S.D. DANZA E FITNESS","Fitness","V. Antonio Pacinotti, 50, 21100 Varese VA, Italia","+39 339 490 7735","Lun 16:30-23 | Mar 16:30-23 | Mer 16:30-23 | Gio 16:30-23 | Ven 16:30-23 | Sab chiuso | Dom chiuso","","45.835782000000002","8.8333340000000007"
"Angelo Training Lab - Personal Studio","Fitness","Via Belmonte, 169, 21100 Varese VA, Italia","+39 327 741 2681","Lun 07-20 | Mar 07-20 | Mer 07-20 | Gio 07-20 | Ven 07-20 | Sab chiuso | Dom chiuso","","45.817618000000003","8.8597760000000001"
"Antigravity Saronno","Yoga | Fitness","Via Giovanni Randaccio, 7, 21047 Saronno VA, Italia","+39 347 901 1903","Lun 18:30-23 | Mar 18:30-23 | Mer 18:30-23 | Gio 18:30-23 | Ven 18:30-23 | Sab chiuso | Dom chiuso","https://www.officinedelsole.net/corsi/antigravity-fit-yoga/","45.631037999999997","9.0322610000000001"
"Anytime Fitness Saronno","Fitness","Via Valletta, 2, 21047 Saronno VA, Italia","+39 351 308 8497","Lun 00:00-24:00 | Mar 00:00-24:00 | Mer 00:00-24:00 | Gio 00:00-24:00 | Ven 00:00-24:00 | Sab 00:00-24:00 | Dom 00:00-24:00","https://www.anytimefitness.it/gyms/it-0053/saronno-va-21047/","45.631064000000002","9.0274990000000006"
"Apex Factory Shop","Fitness","Corso Paolo Bernacchi, 70, 21049 Tradate VA, Italia","+39 0331 830936","Lun chiuso | Mar 10-12:30, 15:30-19 | Mer 10-12:30, 15:30-19 | Gio 10-12:30, 15:30-19 | Ven 10-12:30, 15:30-19 | Sab 10-12:30, 15:30-19 | Dom chiuso","https://www.apex-srl.com/","45.712381999999998","8.9060769999999998"
"Aquamore Busto Arsizio Manara","Nuoto","Via Luciano Manara, 13, 21052 Busto Arsizio VA, Italia","+39 338 362 2254","Orari da verificare","https://www.aquamore.it/portfolio/manara-busto-arsizio/","45.608643000000001","8.8553200000000007"
"Aquamore Manara Busto Arsizio","Nuoto","Via Luciano Manara, 13, 21052 Busto Arsizio VA, Italia","+39 338 362 2254","Orari da verificare","https://www.aquamore.it/busto-arsizio/","45.608348999999997","8.8553449999999998"
"Aquatech Srl","Fitness","Via Mottarone, 14 - 16, 21020 Bodio Lomnago VA, Italia","+39 0332 948724","Lun 08:30-12:30, 14-18 | Mar 08:30-12:30, 14-18 | Mer 08:30-12:30, 14-18 | Gio 08:30-12:30, 14-18 | Ven 08:30-12:30, 14-18 | Sab chiuso | Dom chiuso","https://www.aquatechgroup.eu/","45.793351999999999","8.7441150000000007"
"AR Fitness","Fitness","Via Stradonino 1, 6595 Lavertezzo, Svizzera","+41 91 840 11 11","Lun 00:00-24:00 | Mar 00:00-24:00 | Mer 00:00-24:00 | Gio 00:00-24:00 | Ven 00:00-24:00 | Sab 00:00-24:00 | Dom 00:00-24:00","","46.174261999999999","8.8870769999999997"
"AR Studio Personal","Fitness","C/O Fisioterapia Artemisia - Stabile Bettydo, Via Cantonale 19, 6900 Lugano, Svizzera","+41 76 297 21 79","Lun 06:30-20 | Mar 06:30-19 | Mer 06:30-19 | Gio 06:30-19 | Ven 06:30-11 | Sab chiuso | Dom chiuso","https://www.arstudiopersonal.ch/","46.008622000000003","8.9501639999999991"
"Area 51 Wellness Club","Fitness","Via G. B. Busnelli, N 44, 21047 Saronno VA, Italia","+39 02 9628 0378","Lun 06:30-22 | Mar 06:30-22 | Mer 06:30-22 | Gio 06:30-22 | Ven 06:30-22 | Sab 09-19 | Dom 09-19","http://www.area51wellnessclub.com/","45.639563000000003","9.0515539999999994"
"Area fitness all'aperto-Piscine Mendrisio","Fitness","Via Laveggio 12, 6850 Mendrisio, Svizzera","","Orari da verificare","","45.881039000000001","8.9802070000000001"
"Aries Academy Gallarate PoleDance & Pilates Reformer","Pilates | Fitness","Corso Sempione, 41, 21013 Gallarate VA, Italia","+39 327 014 2577","Orari da verificare","https://ariesacrofitnessacademy.com/","45.663339000000001","8.7835540000000005"
"Arkaya scuola Yoga, Accardi Marzia","Yoga","Via ai Boschetti 18A, 6928 Manno, Svizzera","+41 76 422 40 79","Lun 07-21 | Mar 07-21 | Mer 07-21 | Gio 07-21 | Ven 07-21 | Sab chiuso | Dom chiuso","http://www.yoga-arkaya.ch/","46.038660999999998","8.9176739999999999"
"ArmGym Palestre","Fitness","dietro Esselunga, Via S. Giorgio, 21057 Olgiate Olona VA, Italia","+39 0331 320818","Lun 06-22:30 | Mar 06-22:30 | Mer 06-22:30 | Gio 06-22:30 | Ven 06-22:30 | Sab 09-19 | Dom 09-14","https://www.armgympalestre.com/","45.630153999999997","8.8597370000000009"
"Arrampicata Sportiva Varese","Fitness","Via Donatello, 1, 21100 Varese VA, Italia","+39 375 593 9237","Lun 18-22:30 | Mar 18-22:30 | Mer 18-22:30 | Gio 18-22:30 | Ven 18-22:30 | Sab chiuso | Dom chiuso","https://www.arrampicatavarese.com/","45.807833000000002","8.8355429999999995"
"Arx Padel ASD","Fitness","Via Curtatone, 20, 21013 Gallarate VA, Italia","+39 375 562 3020","Lun 09-23:30 | Mar 09-23:30 | Mer 09-23:30 | Gio 09-23:30 | Ven 09-23:30 | Sab 09-21:30 | Dom 09-21:30","https://www.arxpadel.it/","45.674647999999998","8.7945039999999999"
"AS Riarena","Fitness","Via Riarena, 6516 Locarno, Svizzera","","Orari da verificare","http://www.asriarena.ch/","46.169113000000003","8.9117960000000007"
"Ascofit Fitness Losone","Fitness","Via Locarno 25, 6616 Losone, Svizzera","+41 91 791 67 50","Lun 06-00 | Mar 06-00 | Mer 06-00 | Gio 06-00 | Ven 06-00 | Sab 07-23 | Dom 07-23","http://www.ascofit.ch/","46.165371","8.7619330000000009"
"Ascona-Locarno Run","Fitness","Piazza Grande, 6600 Locarno, Svizzera","","Orari da verificare","https://www.ascona-locarno-run.ch/","46.170065999999998","8.7961089999999995"
"ASD Atletica Tigers Tradate","Fitness","Via Caravaggio, 21049 Tradate VA, Italia","+39 347 689 5826","Lun 18-20 | Mar 18-20 | Mer 18-20 | Gio 18-20 | Ven 18-20 | Sab chiuso | Dom chiuso","https://www.instagram.com/asdatleticatigerstradateigsh=M2lobjhhcnQ2eXdn","45.705680999999998","8.9014760000000006"
"ASD BLACK EAGLES TRADATE - Softair / Airsoft","Fitness","Via Carlo Porta, 21, 21050 Cairate VA, Italia","+39 391 496 5980","Lun 00:00-24:00 | Mar 00:00-24:00 | Mer 00:00-24:00 | Gio 00:00-24:00 | Ven 00:00-24:00 | Sab 00:00-24:00 | Dom 00:00-24:00","https://instabio.cc/blackeagles","45.693921000000003","8.8459129999999995"
"ASD BODY EXTREME LUINO La Palestra dal 1992","Fitness","Via Rossini, 13/A, 21016 Luino VA, Italia","","Lun 09-21 | Mar 09-21 | Mer 10-20 | Gio 09-21 | Ven 09-21 | Sab 10-12:30 | Dom chiuso","https://sites.google.com/view/palestrabodyextremeluino/home-page","45.998539000000001","8.7376400000000007"
"ASD Judo Bu-sen Tradate","Judo | Fitness","ingresso da, Piazza Mazzini, Piazza Nelson Mandela, 21049, 21049 Tradate VA, Italia","+39 340 581 7679","Lun 17-22 | Mar 09:30-11:30, 17-22 | Mer 18-21:30 | Gio 09:30-11:30, 17-22 | Ven 17-21:30 | Sab 09:30-11:30 | Dom chiuso","http://www.judobusentradate.it/","45.713135000000001","8.906212"
"ASD KOKORO DAI","Fitness","Via Luigi Cadorna, 1, 21050 Cairate VA, Italia","+39 0331 312548","Lun 16:45-22 | Mar 16:45-22 | Mer 16:45-22 | Gio 16:45-22 | Ven 16:45-22 | Sab chiuso | Dom chiuso","https://www.kokorodai.it/","45.697868","8.8499350000000003"
"ASD RAGGI D'ORIENTE","Fitness","Via F. Confalonieri, 4, 21052 Busto Arsizio VA, Italia","+39 340 835 4187","Lun 17-23 | Mar 17-23 | Mer 17-23 | Gio 17-23 | Ven 17-23 | Sab chiuso | Dom chiuso","http://www.raggioriente.it/","45.611057000000002","8.8438750000000006"
"Asd. United Sports Ceresio","Fitness","Via per osteno, 9, 22010 Porlezza CO, Italia","+39 371 133 9268","Lun 17-18 | Mar chiuso | Mer chiuso | Gio 19-20:30 | Ven chiuso | Sab chiuso | Dom chiuso","http://www.united-sports-ceresio.it/","46.036723","9.125804"
"ASDSorepi","Yoga","Via Leonardo Da Vinci, 3A, 21100 Varese VA, Italia","+39 320 646 5159","Lun chiuso | Mar chiuso | Mer 17-19 | Gio 17-19 | Ven chiuso | Sab chiuso | Dom chiuso","https://asdsorepi2023.wordpress.com/","45.816406999999998","8.8354470000000003"
"Associazione Calcio Bellinzona","Fitness","Via Codeborgo 9, 6500 Bellinzona, Svizzera","+41 79 244 10 14","Orari da verificare","http://www.acbellinzona.ch/index.php/2018/06/04/acb-fc-red-stars-info-biglietteria/","46.192751999999999","9.0233670000000004"
"Associazione Culturale Smeraldo","Fitness","Via Edmondo de Amicis, 2, 21013 Gallarate VA, Italia","+39 379 109 9269","Orari da verificare","https://www.instagram.com/smeraldo.associazioneigsh=MWNwOW5tMnVqMXlsNQ%3D%3D","45.672409000000002","8.7840399999999992"
"Associazione Culturale Yogacenter","Yoga","Via Brennero, 40, 21013 Gallarate VA, Italia","+39 391 738 9247","Orari da verificare","http://www.yogacenter.it/","45.686807999999999","8.7892969999999995"
"Associazione DMC STUDIO","Fitness","Via Sorengo 2, 6900 Lugano, Svizzera","+41 76 280 12 13","Lun 17-20 | Mar 16-19:30 | Mer 15-21:30 | Gio 16-21:30 | Ven 17-19:30 | Sab chiuso | Dom chiuso","http://www.dmcstudio.ch/","46.005453000000003","8.9441590000000009"
"Associazione i guerrieri del fuoco - Centro yoga e arti marziali","Yoga | Fitness","Via Stadio, 38, 21100 Varese VA, Italia","+39 331 967 2333","Lun 17-22:30 | Mar 17-22:30 | Mer 17-22:30 | Gio 17:30-22:30 | Ven 17-22:30 | Sab chiuso | Dom chiuso","https://www.vareseyoga.it/","45.835695999999999","8.8009020000000007"
"Associazione Oshoba","Fitness","Via Morazzone, 5, 21049 Tradate VA, Italia","+39 0331 810042","Orari da verificare","https://www.oshoba.it/","45.708160999999997","8.8980750000000004"
"Associazione Polisportiva Dilettantistica Aurora Induno","Fitness","Via Olimpiade, snc, 21056 Induno Olona VA, Italia","+39 0332 202562","Lun 18:30-20 | Mar 18:30-20 | Mer 18:30-20 | Gio 18:30-20 | Ven 18:30-20 | Sab chiuso | Dom chiuso","http://aurorainduno.weebly.com/","45.848908999999999","8.853256"
"Associazione Polisportiva Robur Et Fides","Fitness","Via Padre Samuele Marzorati, 51, 21100 Varese VA, Italia","+39 0332 284475","Lun 07-22 | Mar 07-22 | Mer 07-22 | Gio 07-22 | Ven 07-22 | Sab 08-19:30 | Dom 08:30-12:30","http://www.roburetfides.com/","45.825958","8.8166239999999991"
"Associazione Sportiva Rugby Varese","Fitness","Via Salvore, 9, 21100 Varese VA, Italia","+39 0332 282803","Orari da verificare","http://www.rugbyvarese.it/","45.814247000000002","8.838514"
"Associazione Sportiva Uisp - Unione Italiana Sport Per Tutti","Fitness","Piazza Fulvio De Salvo, 5, 21100 Varese VA, Italia","+39 0332 813001","Lun 08:30-13 | Mar 08:30-13 | Mer 08:30-13 | Gio 08:30-13 | Ven 08:30-13 | Sab chiuso | Dom chiuso","http://www.uisp.it/varese/","45.801797000000001","8.8488760000000006"
"Associazione Tennis Club Caslano","Fitness","Via Mera 45, 6987 Caslano, Svizzera","+41 91 606 10 42","Lun 08-21:30 | Mar 08-21:30 | Mer 08-21:30 | Gio 08-21:30 | Ven 08-21:30 | Sab 08-21:30 | Dom 08-21:30","https://tccaslano.ch/ristorante/","45.970260000000003","8.8752320000000005"
"Atelier11","Pilates","Piazza XXV Aprile, 11a, 21052 Busto Arsizio VA, Italia","","Orari da verificare","http://www.atelier11.it/","45.617671999999999","8.8496939999999995"
"Athletic Form | Palestra | Hyrox Center Chiasso","Fitness","Corso S. Gottardo 88, 6830 Chiasso, Svizzera","+41 76 592 18 85","Lun 06-20:30 | Mar 06-20:30 | Mer 06-20:30 | Gio 06-20:30 | Ven 06-20:30 | Sab 06-14 | Dom chiuso","http://www.athleticformch.com/","45.836858999999997","9.025245"
"Athletik Club 90 SA","Fitness","Via Pobbia 6, Casella Postale 10, 6514 Sementina, Svizzera","+41 91 857 65 57","Lun 07:30-21 | Mar 07:30-21 | Mer 07:30-21 | Gio 07:30-21 | Ven 07:30-21 | Sab 07:30-16 | Dom chiuso","http://www.athletikclub90.ch/","46.177697999999999","8.9988519999999994"
"Atletica Tradate","Fitness","Via Caravaggio, 21049 Tradate VA, Italia","","Lun 18-20 | Mar 18-20 | Mer 18-20 | Gio 18-20 | Ven 18-20 | Sab chiuso | Dom chiuso","https://www.atleticatradate.com/home","45.704566999999997","8.9022679999999994"
"AtX Training Lab","Fitness","Viale Luigi Borri, 311, 21100 Varese VA, Italia","+39 0332 176 5565","Lun 06-22 | Mar 06-22 | Mer 06-22 | Gio 06-22 | Ven 06-22 | Sab 06-22 | Dom 06-22","https://www.athletixtl.com/","45.788060999999999","8.8502390000000002"
"Aura Fitness Lounge & Spa","Fitness","Via S. Gottardo 24, 6532 Arbedo-Castione, Svizzera","+41 91 820 12 88","Lun 00:00-24:00 | Mar 00:00-24:00 | Mer 00:00-24:00 | Gio 00:00-24:00 | Ven 00:00-24:00 | Sab 00:00-24:00 | Dom 00:00-24:00","https://aurafitnesslounge.ch/","46.232810000000001","9.0406639999999996"
"Aventurx Tradate | Abbigliamento e accessori moto e trekking","Fitness","Via Eugenio Curiel, 1, 21049 Tradate VA, Italia","+39 02 3654 9346","Lun 09:30-13:30, 14:30-19 | Mar 09:30-13:30, 14:30-19 | Mer 09:30-13:30, 14:30-19 | Gio 09:30-13:30, 14:30-19 | Ven 09:30-13:30, 14:30-19 | Sab 09:30-13:30, 14:30-19 | Dom 09:30-13:30, 14:30-19","https://aventurx.com/","45.699860999999999","8.9109750000000005"
"AYAH EXPERIENCE","Yoga","Via S. Solutore, 21, 21047 Saronno VA, Italia","+39 375 635 3202","Lun 07-20 | Mar 07-20 | Mer 07-20 | Gio 07-20 | Ven 07-20 | Sab 07-20 | Dom 10-20","https://www.ayahexperience.com/","45.617038999999998","9.0423580000000001"
"Ayur.Yoga","Yoga","Viale Stazione 14, 6500 Bellinzona, Svizzera","+41 79 521 02 33","Orari da verificare","","46.192929999999997","9.0253549999999994"
"Ayur.Yoga Ticino","Yoga","Via S. Giovanni 9, 6500 Bellinzona, Svizzera","+41 79 521 02 33","Orari da verificare","https://yellow.local.ch/d/IUSgYGfn33CwRjVCeRuYWg","46.195278999999999","9.0253960000000006"
"BALANCE ACADEMY ASD - SCUOLA DI DANZA E MOVIMENTO","Fitness","Corso Leonardo da Vinci, 48/50, 21013 Gallarate VA, Italia","+39 391 769 4887","Lun 09-12, 16-21 | Mar 14:30-21 | Mer 13-14, 16-21 | Gio 09-10, 16-21 | Ven 17-20 | Sab 09:30-11:30 | Dom chiuso","http://balanceacademy.it/","45.650717999999998","8.788036"
"Balance Lab","Pilates","Via Saverio Mercadante, 21100 Varese VA, Italia","+39 348 825 9903","Lun 08-15, 16:30-21:30 | Mar 08-15, 16:30-21:30 | Mer 08-15, 16:30-21:30 | Gio 08-15, 16:30-21:30 | Ven 08-15, 17:30-20 | Sab 09-13 | Dom chiuso","","45.821590999999998","8.8244019999999992"
"Bali Yoga - Corsi Yoga a Milano Centro","Yoga","Via Marghera, 43, 20149 Milano MI, Italia","+39 333 887 8078","Lun 07-22 | Mar 07-22 | Mer 07-22 | Gio 07-22 | Ven 07-22 | Sab 10-20 | Dom 10-20","http://www.baliyoga.it/utm_source=GoogleMyBusiness&utm_medium=GMB_ViaMarghera","45.466014999999999","9.1521830000000008"
"Balmelli Sport","Fitness","Via G.B. Pioda 10, 6900 Lugano, Svizzera","+41 91 923 58 67","Lun 08:30-18:30 | Mar 08:30-18:30 | Mer 08:30-18:30 | Gio 08:30-18:30 | Ven 08:30-18:30 | Sab 08:30-17 | Dom chiuso","http://www.balmelli-sport.ch/","46.007249999999999","8.954402"
"B-arena","Fitness","Via al Ticino 44, 6514 Sementina, Svizzera","+41 76 259 28 13","Lun 06-23 | Mar 06-23 | Mer 06-23 | Gio 06-23 | Ven 06-23 | Sab 06-23 | Dom 06-23","https://b-arena.ch/","46.177886000000001","8.9956200000000006"
"BASE | Personal Training","Fitness","Via Giacomo Galli, 5, 21049 Tradate VA, Italia","+39 334 351 4605","Orari da verificare","","45.703952999999998","8.9202569999999994"
"BE HAPPY di Federica Lucchini","Fitness","Via Borghetto 6, 6512 Giubiasco, Svizzera","+41 77 204 80 60","Lun 10-19 | Mar chiuso | Mer 10-19 | Gio 10-19 | Ven 10-18:30 | Sab chiuso | Dom chiuso","http://www.vivialtop.com/","46.173338999999999","9.0119369999999996"
"Belady Fitness Club Lugano","Fitness","Via Serafino Balestra 9, 6900 Lugano, Svizzera","+41 78 732 49 94","Lun 07-19 | Mar 07-19 | Mer 07-19 | Gio 07-19 | Ven 07-19 | Sab 07-12 | Dom chiuso","https://belady.ch/","46.008459000000002","8.9541350000000008"
"Bellinzona Sport","Fitness","Via Brunari 2, 6500 Bellinzona, Svizzera","+41 58 203 17 10","Orari da verificare","http://sport.bellinzona.ch/","46.200097999999997","9.0186299999999999"
"Belotti Sport Locarno","Fitness","Via Cittadella 22, 6600 Locarno, Svizzera","+41 91 751 66 02","Lun 09-18:30 | Mar 09-18:30 | Mer 09-18:30 | Gio 09-18:30 | Ven 09-18:30 | Sab 09-17:30 | Dom chiuso","http://www.belottisport.ch/","46.169466","8.7933000000000003"
"Benessere in Movimento Danza & Fitness","Fitness","Via A. Ramazzotti, 33, 21047 Saronno VA, Italia","+39 342 074 2830","Lun 16-22 | Mar 10-11, 16-22 | Mer 16-22 | Gio 10-11, 16-22 | Ven 16-22 | Sab chiuso | Dom chiuso","https://www.bmsaronno.com/","45.628568000000001","9.0327310000000001"
"Berg Piscine S.R.L","Fitness","Via Trieste, 21023 Besozzo VA, Italia","+39 0332 773904","Lun 08:30-17 | Mar 08:30-17 | Mer 08:30-17 | Gio 08:30-17 | Ven 08:30-17 | Sab 08:30-12:30 | Dom chiuso","https://www.bergpiscine.it/utm_medium=referral&utm_source=gmb&utm_campaign=main_gmb","45.864246000000001","8.6684239999999999"
"BhagaYoga","Yoga","Via Camillo Cavour, 5, 21053 Castellanza VA, Italia","+39 339 341 7037","Orari da verificare","https://www.byoga.org/","45.608291999999999","8.8956689999999998"
"Bienfitstudio","Fitness","Via Antonio Vanoni 7, 6900 Lugano, Svizzera","+41 77 905 05 55","Lun 08-19 | Mar 07-19 | Mer 07-19 | Gio 07-19 | Ven 07-19 | Sab 09-12 | Dom chiuso","http://www.bienfitstudio.ch/","46.011356999999997","8.9528970000000001"
"Bilitio Sagl","Fitness","In Tirada 114, 6528 Bellinzona, Svizzera","","Orari da verificare","","46.159582","8.9833859999999994"
"BIOFIT CLUB Lugano","Fitness","Via Giacomo e Filippo Ciani 16, 6900 Lugano, Svizzera","+41 76 805 08 13","Lun 08-19 | Mar 08-19 | Mer 08-19 | Gio 08-19 | Ven 08-19 | Sab 08-12 | Dom chiuso","https://www.biofitclub.ch/","46.015070999999999","8.9609179999999995"
"Blooming moves","Pilates","Via Vallemaggia 11, 6600 Locarno, Svizzera","","Lun chiuso | Mar chiuso | Mer 08:30-11:30 | Gio 12-13:30 | Ven chiuso | Sab chiuso | Dom chiuso","","46.169561999999999","8.7885010000000001"
"BODHI Reformer","Pilates","Corso Bello 2, 6850 Mendrisio, Svizzera","+41 76 814 66 09","Lun 08-20:30 | Mar 07-20:30 | Mer 08-20:30 | Gio 07-20:30 | Ven 08-20:30 | Sab 08-13:30 | Dom 09-12:15","http://www.bodhireformer.ch/","45.869726999999997","8.9875439999999998"
"BODY BALANCE SSD - Venegono Inferiore","Pilates","Via F. Lli Kennedy, 19, 21040 Venegono Inferiore VA, Italia","+39 375 570 4277","Lun 08:30-13:30, 16-21:30 | Mar 08:30-13:30, 17-21:30 | Mer 17-21:30 | Gio 08:30-13:30, 17-21:30 | Ven 08:30-13:30, 16-20:30 | Sab 08:30-13:30 | Dom chiuso","https://www.bb-bodybalance.it/","45.731104999999999","8.8850850000000001"
"Body Mind Arti Marziali & Fitness Academy","Fitness","Via Guglielmo Marconi, 13, 21026 Gavirate VA, Italia","","Lun 17:30-21 | Mar 17:30-21 | Mer 17:30-21 | Gio 17:30-21 | Ven chiuso | Sab chiuso | Dom chiuso","https://linktr.ee/bodymind_fitnessacademy","45.843229999999998","8.7130779999999994"
"Body Power Gym - Mendrisio","Fitness","Via Rime 38, 6850 Mendrisio, Svizzera","+41 91 646 21 88","Orari da verificare","https://fitness.center.ivof.com/body-power-gym/","45.870497999999998","8.9759360000000008"
"Body Work Lugano - EMS e Vacu Gym","Fitness","Via Tesserete 65, 6900 Lugano, Svizzera","+41 76 707 75 47","Lun 07:30-19:30 | Mar 07:30-19:30 | Mer 07:30-19:30 | Gio 07:30-19:30 | Ven 07:30-19:30 | Sab 08-12 | Dom chiuso","http://www.bodyworklugano.ch/","46.016756999999998","8.9506329999999998"
"BodyClub Fitness","Fitness","Via S. Gottardo 1, 6600 Muralto, Svizzera","+41 79 815 03 80","Lun 06-00 | Mar 06-00 | Mer 06-00 | Gio 06-00 | Ven 06-00 | Sab 06-00 | Dom 06-00","https://www.bodyclub.ch/","46.173685999999996","8.8019049999999996"
"BodyClub Personal Training","Fitness","Via G. Mariani 1b, 6600 Muralto, Svizzera","+41 79 815 03 80","Lun 06-21 | Mar 06-21 | Mer 06-21 | Gio 06-21 | Ven 06-21 | Sab 08-12 | Dom chiuso","http://www.bodyclub.ch/personal-trainer","46.173887000000001","8.8019390000000008"
"Boubou Camp centro cinofilo","Fitness","Via Vetta d'Italia, 40, 21100 Varese VA, Italia","+39 329 013 1684","Lun 08-20 | Mar 08-20 | Mer 08-20 | Gio 08-20 | Ven 08-20 | Sab 08-20 | Dom 08-20","http://bouboucamp.com/","45.825713","8.8597219999999997"
"Bowling Space Varese","Fitness","Via Campo di Maggio, 33, 21020 Gazzada Schianno VA, Italia","+39 0332 135 3400","Lun 15-01 | Mar 15-01 | Mer 15-01 | Gio 15-01 | Ven 14-02 | Sab 14-02 | Dom 14-02","https://bowlingspacevarese.it/","45.770218999999997","8.8115749999999995"
"Boxe Club Locarno","Boxe | Fitness","Via della Pace 1b, 6600 Locarno, Svizzera","+41 76 577 25 83","Orari da verificare","","46.168914000000001","8.7989090000000001"
"Boxe Club Locarno","Boxe","via alla Morettina 9A, 6600 Locarno, Svizzera","","Lun chiuso | Mar chiuso | Mer chiuso | Gio chiuso | Ven chiuso | Sab chiuso | Dom chiuso","http://www.boxeclublocarno.ch/","46.164648","8.7890370000000004"
"Boxing Fighter's Varese","Boxe | Fitness","Via Giuseppe Giusti, 7, 21100 Varese VA, Italia","+39 340 508 4131","Lun 17:30-20:30 | Mar 17:30-20:30 | Mer 17:30-20:30 | Gio 17:30-20:30 | Ven 17:30-20:30 | Sab chiuso | Dom chiuso","https://12932-boxingfighters-it.sitebuilder-it.webapps.net/","45.802585999999998","8.8431840000000008"
"Boxing Team Luganese","Boxe","Via alla Stampa, 6965 Lugano, Svizzera","+41 76 368 11 23","Lun 17-21 | Mar 17-21 | Mer 17-21 | Gio 17-21 | Ven 17-21 | Sab chiuso | Dom chiuso","http://www.boxingteamluganese.ch/","46.041691","8.974119"
"Boxing Team Tiger di Maestro Bassem Sassi","Boxe","Via I Maggio, 21050 Lonate Ceppino VA, Italia","+39 331 444 8861","Lun 18-20 | Mar chiuso | Mer 18-20 | Gio chiuso | Ven 18-20 | Sab chiuso | Dom chiuso","https://www.facebook.com/profile.phpid=100091627429203","45.704543999999999","8.8754240000000006"
"Brasa Team Italy","Fitness","Via Cesare Correnti, 2, 21100 Varese VA, Italia","+39 0332 812910","Lun chiuso | Mar 19:30-22 | Mer chiuso | Gio 19:30-22 | Ven chiuso | Sab 12-14:30 | Dom chiuso","http://www.brasateam.it/","45.797424999999997","8.8430470000000003"
"Broa BJJ Lugano","JiuJitsu Brasiliano","Via Landriani 7, 6900 Lugano, Svizzera","+41 76 367 90 10","Orari da verificare","https://broabjj.ch/","46.006462999999997","8.9588990000000006"
"Broadway Palestre","Fitness","Via Alessandro Volta, 7, 21047 Saronno VA, Italia","+39 344 084 5471","Lun 08-20 | Mar 08-20 | Mer 08-20 | Gio 08-20 | Ven 08-20 | Sab 15-17 | Dom chiuso","http://www.broadwaypalestre.it/","45.630270000000003","9.0355249999999998"
"Budo Club Vedeggio","Judo","Via Ortaccio 1, 6990 Agno, Svizzera","+41 79 337 31 23","Orari da verificare","http://www.budovedeggio.ch/index.php/il-club/comitato","45.991643","8.892226"
"BU-SEN VERBANO JUDO","Judo","Via ai Ronchi, 3, 21010 Germignaga VA, Italia","","Lun 17-19 | Mar chiuso | Mer chiuso | Gio 17-19 | Ven chiuso | Sab chiuso | Dom chiuso","https://www.busenverbanojudo.it/","45.989724000000002","8.7243189999999995"
"BUSHI NO TE, Arti marziali, Karate-Do, Kenjutsu, Kobudo, Antiaggressione femminile, M° T. Güney","Karate","Corsi per tutti (palestra SUPSI, Entrata da Via Rinaldo Simen o, Piazza S. Francesco 16, 6600 Locarno, Svizzera","+41 91 796 12 44","Lun 18:30-21 | Mar 18:30-20 | Mer 19-20 | Gio 18:30-21 | Ven chiuso | Sab chiuso | Dom chiuso","http://www.karate-bushinote.com/","46.167411999999999","8.7912839999999992"
"BUSHINOTE ARTI MARZIALI","Karate","Via Cappuccini 2, 6600 Locarno, Svizzera","+41 78 696 36 39","Lun chiuso | Mar 18:30-21:30 | Mer chiuso | Gio 18:30-21:30 | Ven chiuso | Sab chiuso | Dom chiuso","https://www.karate-bushinote.com/","46.171722000000003","8.7971149999999998"
"Busto Nuoto Sincro","Nuoto","Via Luciano Manara, 13, 21052 Busto Arsizio VA, Italia","+39 0331 629364","Orari da verificare","https://www.bustonuotosincro.com/","45.608378999999999","8.8551129999999993"
"California Acquapark","Fitness","Via S. Gottardo 4, 6828 Balerna, Svizzera","+41 91 695 70 00","Lun 08:30-22 | Mar 08:30-21 | Mer 08:30-22 | Gio 08:30-21 | Ven 08:30-21 | Sab 09-19 | Dom 09-19","https://california-acquapark.ch/","45.839478999999997","9.0201609999999999"
"California Yoga International","Yoga","Via Pasquale Lucchini 4, 6900 Lugano, Svizzera","+41 78 447 08 88","Lun 10-20 | Mar 11:30-20 | Mer 18:30-20:30 | Gio 17:30-20 | Ven 11:30-20 | Sab 09:30-13 | Dom chiuso","http://californiayogainternational.com/","46.006075000000003","8.9575960000000006"
"Campi Da Tennis","Fitness","Via dei Sassi, 36, 21052 Busto Arsizio VA, Italia","","Lun 08-22 | Mar 08-22 | Mer 08-22 | Gio 08-22 | Ven 08-22 | Sab 08-22 | Dom 08-22","","45.626139000000002","8.8437300000000008"
"Campo di calcetto centro sportivo Mons. Ugo Ronchi","Fitness","Via Bellavita, 5C, 21047 Saronno VA, Italia","","Orari da verificare","","45.632838999999997","9.0395380000000003"
"Campo di Calcio Locarno","Fitness","6600 Locarno, Svizzera","","Lun 00:00-24:00 | Mar 00:00-24:00 | Mer 00:00-24:00 | Gio 00:00-24:00 | Ven 00:00-24:00 | Sab 00:00-24:00 | Dom 00:00-24:00","","46.162678999999997","8.801539"
"Campo Sportivo","Fitness","Via ai Saleggi, 6834 Morbio Inferiore, Svizzera","","Orari da verificare","","45.848972000000003","9.0229049999999997"
"Campo Sportivo","Fitness","Via Camparano 31-33, 6965 Lugano, Svizzera","","Orari da verificare","","46.044499000000002","8.979419"
"Campo Sportivo Comunale 'Mario Porta'","Fitness","Vedano Olona, Via Nino Bixio, 18, 21040 Varese VA, Italia","","Orari da verificare","","45.772514999999999","8.8891089999999995"
"Campo Sportivo Comunale 'S.C.Antoniana Asd'","Fitness","Via Cà Bianca, 44, 21052 Busto Arsizio VA, Italia","+39 0331 324075","Lun chiuso | Mar chiuso | Mer chiuso | Gio chiuso | Ven chiuso | Sab 14-16 | Dom chiuso","http://scantoniana.it/","45.613472999999999","8.8786780000000007"
"Campo sportivo Parrocchiale ""Don Cesana""","Fitness","Via Varese, 33, 21052 Busto Arsizio VA, Italia","+39 350 590 8328","Lun 00:00-24:00 | Mar 00:00-24:00 | Mer 00:00-24:00 | Gio 00:00-24:00 | Ven 00:00-24:00 | Sab 00:00-24:00 | Dom 00:00-24:00","http://facebook.com/schoolofsportrezzara/","45.614077000000002","8.836741"
"Campo Sportivo Ponte Chiasso","Fitness","Via Bellinzona, 215, 22100 Como CO, Italia","+39 335 808 4050","Lun 17-00 | Mar 17-00 | Mer 17-00 | Gio 17-00 | Ven 17-00 | Sab 17-00 | Dom 17-00","","45.827305000000003","9.0426310000000001"
"Campo Sportivo Via Roma","Fitness","Via Roma, 21049 Tradate VA, Italia","+39 349 370 9051","Lun 09-22 | Mar 09-22 | Mer 09-22 | Gio 09-22 | Ven 09-22 | Sab 09-21 | Dom 09-20","","45.707873999999997","8.9150880000000008"
"Campus - Pro Patria Judo","Judo | Fitness","Via Luigi Settembrini, 33, 21052 Busto Arsizio VA, Italia","+39 393 864 3615","Lun 10-13, 15-22 | Mar 10-13, 15-22 | Mer 10-13, 15-22 | Gio 10-13, 15-22 | Ven 10-13, 15-22 | Sab 00:00-24:00 | Dom chiuso","http://campus.propatriajudo.it/","45.592368","8.8427000000000007"
"Canottieri Luino","Fitness","Via Lido, 6, 21016 Luino VA, Italia","+39 0332 531240","Lun 16-20 | Mar 16-20 | Mer 16-20 | Gio 16-20 | Ven 16-20 | Sab 10-00:30 | Dom 10-00:30","http://www.canottieriluino.it/","45.996558999999998","8.7298480000000005"
"Carpe Diem - Studio Yoga di Cory Yoga","Yoga","Via Gismonda 7, 6850 Mendrisio, Svizzera","+41 76 383 62 93","Lun 09:30-21 | Mar 18-21 | Mer 12-21:30 | Gio 07-20:30 | Ven 12-13 | Sab 10-12 | Dom 18-19:30","https://www.coryyogawithheart.com/utm_source=google&utm_medium=wix_google_business_profile&utm_campaign=2232695709245020399","45.868561","8.9852699999999999"
"Casa Santo Stefano","Fitness","Via alla Chiesa 25, 6986 Miglieglia, Svizzera","+41 91 609 19 35","Orari da verificare","http://www.casa-santo-stefano.ch/","46.024546999999998","8.8567680000000006"
"Centro Élite Fitness","Fitness","Via Martiri Patrioti, 64, 21046 Malnate VA, Italia","+39 375 553 0991","Lun 07-22 | Mar 07-22 | Mer 07-22 | Gio 07-22 | Ven 07-22 | Sab 08-14 | Dom chiuso","https://www.centroelitefitness.it/","45.796250000000001","8.8835770000000007"
"Centro Élite Fitness Varese","Fitness","Via Albuzzi, 8, 21100 Varese VA, Italia","+39 375 772 4578","Lun 06-21:30 | Mar 06-21:30 | Mer 06-21:30 | Gio 06-21:30 | Ven 06-21:30 | Sab 08-13 | Dom chiuso","https://www.centroelitefitness.it/","45.819623999999997","8.8268950000000004"
"Centro Ananda di Natascia Landrini - Counselling - Mindfulness - Formazione","Fitness","Via Fiorina 1, 6600 Locarno, Svizzera","+41 79 659 35 68","Lun 08-17 | Mar 08-17 | Mer 08-17 | Gio 08-17 | Ven 08-17 | Sab 10-17 | Dom 14-19","https://www.centro-ananda.ch/","46.170093999999999","8.7922670000000007"
"Centro Annapurna","Yoga","Via S. Gottardo 200, 6648 Minusio, Svizzera","+41 77 256 08 41","Orari da verificare","http://www.centroannapurna.ch/","46.179338000000001","8.8437129999999993"
"Centro Arti Marziali Judo DO YU KAI","Judo","Centro Arti Marziali Judo DO YU KAI, Via Carlo Cattaneo, Pedrinate, Chiasso, Circolo di Balerna, Distretto di Mendrisio, Ticino, 6832, Schweiz/Suisse/Svizzera/Svizra","","Orari da verificare","","45.831812","9.027068"
"Centro Arti Marziali KiAikiDojo","Aikido","Centro Arti Marziali KiAikiDojo, 6, Via Giuseppe Mazzini, Dormelletto, Novara, Piemonte, 28040, Italia","","Orari da verificare","","45.743508","8.563835"
"Centro Arti Marziali SCT","Fitness","Via Don Guanella, 116, 21062 Cadrezzate con Osmate VA, Italia","+39 329 545 9580","Lun chiuso | Mar 18:30-21:30 | Mer chiuso | Gio 18:30-21:30 | Ven chiuso | Sab chiuso | Dom chiuso","http://www.combattimento.com/","45.799300000000002","8.6324170000000002"
"Centro Benessere & Spa - Villa Borghi","Fitness","Piazza Borghi, 1, 21020 Varano Borghi VA, Italia","+39 0332 961515","Lun 11-19 | Mar chiuso | Mer chiuso | Gio 11-19 | Ven 11-19 | Sab 11-19 | Dom 11-19","https://www.hotelvillaborghi.it/it/hotel-4-stelle-varano-borghi-varese/offerte-esclusive","45.772858999999997","8.7037089999999999"
"Centro Coraticum","Fitness","Via Franco Zorzi 15A, 6500 Bellinzona, Svizzera","+41 78 662 55 00","Lun chiuso | Mar chiuso | Mer chiuso | Gio chiuso | Ven chiuso | Sab 09-17 | Dom chiuso","http://www.coraticum.ch/","46.188535999999999","9.0160409999999995"
"Centro di Atletica Città di Busto Arsizio","Fitness","Via Angelo Borri, 1, 21052 Busto Arsizio VA, Italia","+39 371 643 8716","Lun 17-20 | Mar 17-20 | Mer 17-20 | Gio 17-20 | Ven 17-20 | Sab chiuso | Dom chiuso","","45.594987000000003","8.8301499999999997"
"Centro di Fisioterapia Nosetto Bellinzona","Fitness","Piazza Nosetto 4, 6500 Bellinzona, Svizzera","+41 91 826 31 46","Lun 08-19:30 | Mar 08-19:30 | Mer 08-19:30 | Gio 08-19:30 | Ven 08-19:30 | Sab chiuso | Dom chiuso","https://www.fisioterapianosetto.ch/","46.191015","9.0228099999999998"
"Centro Educazione Fisica Mario Corrias Ass. Sport.Dilettant","Fitness","Via Monte Bianco, 19, 21047 Saronno VA, Italia","+39 02 962 2570","Lun 17-19 | Mar 17-19 | Mer 17-19 | Gio 17-19 | Ven 17-19 | Sab chiuso | Dom chiuso","http://www.ginnasticacorrias.it/","45.629976999999997","9.0253840000000007"
"Centro Fitness CUS Insubria","Fitness","Via Monte Generoso, 59, 21100 Varese VA, Italia","+39 0332 219897","Lun 09-22 | Mar 09-22 | Mer 09-22 | Gio 09-22 | Ven 09-22 | Sab 09-20 | Dom chiuso","http://www.cusinsubria.it/index.phpoption=com_content&view=article&id=37&Itemid=51","45.796729999999997","8.8542699999999996"
"Centro Fitness Lido Locarno","Fitness","Via Gioacchino Respini 11, 6601 Locarno, Svizzera","+41 79 591 38 27","Lun 08:30-21 | Mar 07:30-21 | Mer 08:30-21 | Gio 07:30-21 | Ven 08:30-21 | Sab 09-18 | Dom 09-18","https://www.lidolocarno.ch/it/centro-fitness","46.161709000000002","8.8032350000000008"
"Centro Gayatri","Yoga","Via Tarì Cippo 9, 6944 Cureglia, Svizzera","+41 91 600 33 23","Lun 00:00-24:00 | Mar 00:00-24:00 | Mer 00:00-24:00 | Gio 00:00-24:00 | Ven 00:00-24:00 | Sab 00:00-24:00 | Dom chiuso","https://yellow.local.ch/d/jYhtOc1svIzRk5VaKvl4YQ","46.037275000000001","8.9470189999999992"
"Centro Giovani Chiasso","Fitness","Via Generale E.Guisan 17, 6830 Chiasso, Svizzera","+41 58 122 48 57","Orari da verificare","https://www.chiasso.ch/istruzione-socialita/centro-giovani/","45.832579000000003","9.0224159999999998"
"Centro Gioventù e Sport Bellinzona","Fitness","Via Francesco Chiesa 4, 6500 Bellinzona, Svizzera","+41 91 814 58 51","Lun 08-17:30 | Mar 08-17:30 | Mer 08-17:30 | Gio 08-17:30 | Ven 08-17:30 | Sab chiuso | Dom chiuso","https://www4.ti.ch/decs/sa/us/settori/gioventu-e-sport/presentazione","46.195965000000001","9.0142050000000005"
"Centro I.a.c.m.a.","Fitness","Via Sonvico 9, 6948 Porza, Svizzera","+41 91 941 78 66","Orari da verificare","https://www.iacma.com/","46.025644999999997","8.9641040000000007"
"Centro KamaYoga","Yoga","Via Dante Alighieri, 13, 21047 Saronno VA, Italia","+39 349 259 3608","Orari da verificare","https://www.instagram.com/_kamayogaigsh=bjk5eTVzMWI0eXMz&utm_source=qr","45.619785","9.0425719999999998"
"Centro Manipura","Yoga","Via Cantonale 34, 6525 Gnosca, Svizzera","+41 79 521 45 26","Lun 08-21 | Mar 08-21 | Mer 08-21 | Gio 08-21 | Ven 18-19:30 | Sab chiuso | Dom chiuso","http://www.nyamayoga.ch/","46.233013999999997","9.0228660000000005"
"Centro medico Polaris","Fitness","Via Vallone, 1, 21016 Luino VA, Italia","+39 0332 511243","Lun 08-13, 14-19 | Mar 08-19 | Mer 08-19 | Gio 08:30-19 | Ven 08:30-13, 14-20 | Sab 08-19 | Dom chiuso","http://www.centromedicopolaris.it/","45.996043999999998","8.7442550000000008"
"Centro Olistico La Tana del Bianconiglio","Yoga","Via delle Lucciole, 13, 21052 Busto Arsizio VA, Italia","+39 347 416 3098","Orari da verificare","http://latanadelbianconiglio.info/","45.618549999999999","8.8293680000000005"
"Centro Pilates, Specializzato metodo Pilates","Pilates","Via Borghese 14, 6600 Locarno, Svizzera","","Lun chiuso | Mar chiuso | Mer chiuso | Gio chiuso | Ven chiuso | Sab 09-12 | Dom chiuso","http://www.centropilates.ch/","46.170383999999999","8.7932659999999991"
"Centro Polivalente Comunale","Fitness","Via Fornaci, 1A, 21020 Ternate VA, Italia","","Orari da verificare","https://www.comune.ternate.va.it/vivere_il_comune/luoghi/luogo_9.html","45.783647999999999","8.6946359999999991"
"Centro Sport Varese","Fitness","Via Dalmazia, 15/17, 21100 Varese VA, Italia","+39 0332 335175","Lun 06-22 | Mar 06-22 | Mer 06-22 | Gio 06-22 | Ven 06-22 | Sab 09-16 | Dom 09-14","","45.823957999999998","8.8393239999999995"
"Centro Sportivo ""Carlo Matteo Uslenghi""","Fitness","Via Caravaggio, 21049 Tradate VA, Italia","","Orari da verificare","https://comune.tradate.va.it/luoghi/centro-sportivo-c-m-uslenghi/","45.70505","8.9013939999999998"
"Centro Sportivo Adorna","Fitness","Via Campagna Adorna, 6850 Mendrisio, Svizzera","+41 58 688 31 31","Orari da verificare","http://mendrisio.ch/strutture/centro-sportivo-adorna-mendrisio/","45.858383000000003","8.9716439999999995"
"Centro Sportivo Cedrate","Fitness","21013 Gallarate VA, Italia","","Orari da verificare","https://www.cedratese1985.it/sedi","45.662315","8.808325"
"Centro Sportivo Club Azzurro Societa' Sportiva","Fitness","Via Cesare Battisti, 6, 21045 Gazzada Schianno VA, Italia","+39 0332 464080","Lun 09-22 | Mar 09-22 | Mer 09-22 | Gio 09-22 | Ven 09-22 | Sab 09-17 | Dom 09-13","http://www.csca.it/","45.768839999999997","8.8146749999999994"
"Centro Sportivo Collina d'Oro","Fitness","Via Nocc 9, 6925 Collina d'Oro, Svizzera","+41 91 986 46 46","Lun 08-21 | Mar 08-21 | Mer 08-21 | Gio 08-21 | Ven 08-21 | Sab 08-21 | Dom 08-21","https://www.vivicollinadoro.swiss/centro-sportivo","45.990068999999998","8.9362449999999995"
"Centro Sportivo Comunale Prealpi","Fitness","Via Sabotino, 21047 Saronno VA, Italia","","Orari da verificare","","45.634082999999997","9.0328879999999998"
"Centro Sportivo di Bellinzona","Fitness","Via Brunari 2, 6500 Bellinzona, Svizzera","+41 58 203 17 12","Lun 07-23 | Mar 07-23 | Mer 07-23 | Gio 07-23 | Ven 07-23 | Sab 07-23 | Dom 07-23","http://sport.bellinzona.ch/","46.200181999999998","9.0177239999999994"
"Centro sportivo Geretta","Fitness","Via Pratocarasso 37, 6500 Bellinzona, Svizzera","+41 91 821 87 35","Orari da verificare","","46.202714","9.0315670000000008"
"Centro Sportivo Italiano (CSI Varese)","Fitness","Via S. Francesco D'Assisi, 15, 21100 Varese VA, Italia","+39 0332 481116","Lun chiuso | Mar 09:30-13:30 | Mer 09:30-13:30 | Gio chiuso | Ven 09:30-13:30 | Sab chiuso | Dom chiuso","http://www.csivarese.com/","45.816392","8.8242720000000006"
"Centro Sportivo Italiano CSI Zona Gallarate","Fitness","Via dello Statuto, 1, 21017 Samarate VA, Italia","+39 366 720 4042","Orari da verificare","http://gallarate.csivarese.com/","45.628565000000002","8.7848539999999993"
"Centro Sportivo La Monda","Fitness","6943 Vezia, Svizzera","+41 91 800 11 70","Orari da verificare","http://www.vezia.ch/","46.026738999999999","8.9301100000000009"
"Centro Sportivo La Talpa S.A.S. di Marzio Franco Alessandro & C.","Fitness","Viale dello Sport, 26, 21026 Gavirate VA, Italia","+39 0332 746111","Lun 10-22 | Mar 10-00 | Mer 10-00 | Gio 00:00-24:00 | Ven 10-00 | Sab 10-19 | Dom 10-20","http://www.centrosportivolatalpa.it/","45.843580000000003","8.7007600000000007"
"Centro Sportivo Le Palme","Fitness","Via F. lli Vigorelli, 1B, 21013 Gallarate VA, Italia","","Orari da verificare","","45.654198999999998","8.8117140000000003"
"Centro Sportivo Lozza","Fitness","Via Giuseppe Verdi, 14, 21040 Lozza VA, Italia","+39 338 159 0132","Lun 09-23 | Mar 09-23 | Mer 09-23 | Gio 09-23 | Ven 09-23 | Sab 09-21 | Dom 09-21","","45.775711000000001","8.8532279999999997"
"Centro Sportivo Matteotti","Fitness","V. Sampietro, 21047 Saronno VA, Italia","+39 373 804 8026","Orari da verificare","http://www.comune.saronno.va.it/servizi/Menu/dinamica.aspxidSezione=616&idArea=16417&idCat=16473&ID=16481&TipoElemento=categoria","45.614226000000002","9.023199"
"Centro Sportivo Moriggia","Fitness","Via Benedetto Croce, 1, 21013 Gallarate VA, Italia","+39 0331 780137","Lun 09-19:30 | Mar 09-19:30 | Mer 09-19:30 | Gio 09-19:30 | Ven 09-19:30 | Sab 09-19:30 | Dom 09-19:30","https://www.clubsporting.it/web2/","45.673101000000003","8.7586539999999999"
"Centro Sportivo Nazionale della Gioventù","Fitness","Via alle Brere 10, 6598 Tenero-Contra, Svizzera","+41 58 468 61 11","Lun 08-22 | Mar 08-22 | Mer 08-22 | Gio 08-22 | Ven 08-22 | Sab 08-22 | Dom 08-22","http://www.cstenero.ch/","46.172049999999999","8.8552129999999991"
"Centro Sportivo Scuolatennis.it","Fitness","Piazzale Guglielmo Marconi, 21, 21016 Luino VA, Italia","+39 348 726 3617","Lun 08-23 | Mar 08-23 | Mer 08-23 | Gio 08-23 | Ven 08-23 | Sab 08-23 | Dom 08-23","http://www.scuolatennis.it/","45.996710999999998","8.7364990000000002"
"Centro Sportivo Tennis West Varese","Fitness","Str. Armino, 4, 21034 Cocquio-Trevisago VA, Italia","+39 377 210 8609","Lun 08-00 | Mar 08-00 | Mer 08-00 | Gio 08-00 | Ven 08-00 | Sab 08-00 | Dom 08-00","","45.856785000000002","8.7040629999999997"
"Centro Sportivo Val Gersa Piscina","Nuoto","Via centro Sportivo 1, 6942 Savosa, Svizzera","+41 91 966 53 41","Lun 10-19 | Mar 10-19 | Mer 10-19 | Gio 10-19 | Ven 10-19 | Sab 10-19 | Dom 10-19","https://valgersa.ch/","46.016083999999999","8.9402489999999997"
"Centro Studi Karate Busto Arsizio","Karate","Via Magenta, 86, 21052 Busto Arsizio VA, Italia","+39 338 733 5061","Lun 09-19 | Mar 09-19 | Mer 09-19 | Gio 14-19 | Ven 09-19 | Sab chiuso | Dom chiuso","http://cskbustoa.it/","45.594406999999997","8.8467590000000005"
"Centro taekwondo Baier","Taekwondo","Via Benedetto Croce, 1, 21013 Gallarate VA, Italia","","Lun 19-20 | Mar chiuso | Mer chiuso | Gio 18:20-19:20 | Ven 19-20 | Sab chiuso | Dom chiuso","http://www.centrotaekwondobaier.it/","45.673276000000001","8.7590070000000004"
"Centro Yoga Ashoka","Yoga","Corso Bello 9 (entrata, Via Luigi Lavizzari 20, 6850 Mendrisio, Svizzera","+41 76 330 10 48","Orari da verificare","http://www.antonellakurzen.com/","45.870013","8.9879529999999992"
"Centro Yoga Energia Locarno","Yoga","Via dei Vicini 9, 6648 Minusio, Svizzera","+41 91 743 73 31","Orari da verificare","","46.177869000000001","8.8111949999999997"
"Centro Yoga Padma","Yoga","Via al Ramone 2, 6500 Bellinzona, Svizzera","+41 78 645 21 07","Orari da verificare","http://www.centroyogapadma.ch/","46.202193999999999","9.0237449999999999"
"Centro Yoga Saronno","Yoga","Via Ai Campi, 17/A, 20815 Cogliate MB, Italia","+39 347 788 7567","Lun chiuso | Mar 11-11:45, 19:30-21 | Mer 19:30-21 | Gio chiuso | Ven 19:30-21 | Sab chiuso | Dom chiuso","","45.636944999999997","9.0774310000000007"
"Chanbara Paradiso","Chanbara","Via Calprino 3, 6900 Paradiso, Svizzera","+41 76 298 44 33","Orari da verificare","","45.989013","8.940486"
"Chiara Tansini Amchi-Naturopata - Terapie Olistiche e Massaggio Ayurvedico","Fitness","Via della Pace 3, 6600 Locarno, Svizzera","+41 79 263 48 36","Lun 08:30-19 | Mar 08:30-19 | Mer 08:30-19 | Gio 08:30-19 | Ven 08:30-19 | Sab 10-17 | Dom chiuso","http://www.blueberyl.org/","46.168334999999999","8.7988949999999999"
"Chiasso","Fitness","Svizzera","","Orari da verificare","http://www.chiasso.ch/","45.8367","9.0246110000000002"
"Chiasso Fisio Lab","Fitness","Via Dante Alighieri 5, 6830 Chiasso, Svizzera","+41 78 223 57 21","Lun 07:30-21 | Mar 07:30-21 | Mer 07:30-21 | Gio 07:30-21 | Ven 07:30-21 | Sab 07:30-21 | Dom chiuso","http://chiassofisiolab.ch/","45.836981000000002","9.0259250000000009"
"Chiesa parrocchiale di S. Giovanni Battista in Avigno","Fitness","Via Astico, 14, 21100 Varese VA, Italia","+39 0332 229405","Orari da verificare","","45.838132999999999","8.7944820000000004"
"Chiva Sun Holistic Healing Center & Spa | Yoga Ferien, Workshops, Retreats, Massagen & Wellness","Yoga","Via Storta 74, 6645 Minusio, Svizzera","+41 91 744 62 72","Lun 09-19 | Mar 09-19 | Mer 09-19 | Gio 09-19 | Ven 09-19 | Sab 09-19 | Dom 09-19","https://www.chivasun.ch/","46.184147000000003","8.8246169999999999"
"Cimetta Sport","Fitness","piazza grande 15, 6600 Locarno, Svizzera","+41 91 751 23 78","Lun chiuso | Mar chiuso | Mer chiuso | Gio chiuso | Ven chiuso | Sab 09-17 | Dom chiuso","http://www.cimettasport.ch/","46.168579000000001","8.794594"
"Circolo Scherma Locarno","Scherma | Fitness","Via Ripa Canova 1, 6600 Locarno, Svizzera","+41 79 620 36 91","Lun chiuso | Mar chiuso | Mer 13:15-21 | Gio chiuso | Ven chiuso | Sab 09:30-12 | Dom chiuso","http://www.schermalocarno.ch/","46.167900000000003","8.7927350000000004"
"Cisalfa Sport Gavirate","Fitness","Viale Ticino, c.c. Campo dei Fiori, 82, 21026 Gavirate VA, Italia","+39 0332 732099","Lun 09-21 | Mar 09-21 | Mer 09-21 | Gio 09-21 | Ven 09-21 | Sab 09-21 | Dom 09-21","https://www.cisalfasport.it/it-it/storelocator/italia/lombardia/varese/gavirateutm_source=google&utm_medium=GMBSitelink&utm_campaign=GMBSitelink_Gavirate_CIS015","45.838799000000002","8.7042280000000005"
"Cisalfa Sport Varese","Fitness","P.za della Repubblica, c.c. Le Corti, 25, 21100 Varese VA, Italia","+39 0332 281966","Lun 09-19 | Mar 09-19 | Mer 09-19 | Gio 09-19 | Ven 09-19 | Sab 09-19 | Dom 14:30-19","https://www.cisalfasport.it/it-it/storelocator/italia/lombardia/varese/vareseutm_source=google&utm_medium=GMBSitelink&utm_campaign=GMBSitelink_Varese_CIS816","45.815933999999999","8.8278859999999995"
"CITY Agno","Fitness","Via Ponte Vecchio, 6982 Agno, Svizzera","+41 79 248 52 34","Lun 06-22 | Mar 06-22 | Mer 06-22 | Gio 06-22 | Ven 06-22 | Sab 08-19 | Dom 08-19","https://www.citylugano.ch/","46.001945999999997","8.9022749999999995"
"CITY Lugano","Fitness","Via Pasquale Lucchini 7, 6900 Lugano, Svizzera","+41 79 248 52 34","Lun 06-22 | Mar 06-22 | Mer 06-22 | Gio 06-22 | Ven 06-22 | Sab 07-19 | Dom 07-19","http://www.citylugano.ch/","46.006346000000001","8.9571520000000007"
"CITY Paradiso","Fitness","Via Generale Guisan 8A, 6900 Paradiso, Svizzera","+41 79 248 52 34","Lun 06-22 | Mar 06-22 | Mer 06-22 | Gio 06-22 | Ven 06-22 | Sab 07-19 | Dom 07-19","https://www.citylugano.ch/","45.991714999999999","8.9461089999999999"
"Club Amici Dello Sport Sezione Calcio","Fitness","Via Monte Grappa, 15, 21052 Busto Arsizio VA, Italia","+39 0331 627406","Orari da verificare","","45.602032000000001","8.8383929999999999"
"Club Arti Marziali Caslano","Fitness","Via Baragia 34, 6987 Caslano, Svizzera","+39 348 721 3711","Lun chiuso | Mar chiuso | Mer 17-21 | Gio chiuso | Ven 17-21 | Sab chiuso | Dom chiuso","http://artimarzialicaslano.com/home","45.976987000000001","8.8807880000000008"
"Club House","Fitness","Via Maraini 3, 6963 Lugano, Svizzera","+41 91 941 43 40","Lun 06-20 | Mar 06-20 | Mer 06-22 | Gio 06-22 | Ven 06-22 | Sab 08-22 | Dom 08-20","","46.024802000000001","8.9667469999999998"
"Club Move SA Palestra","Fitness","Via Trevano 85, 6900 Lugano, Svizzera","+41 91 924 01 07","Lun 05-00 | Mar 05-00 | Mer 05-00 | Gio 05-00 | Ven 05-00 | Sab 05-00 | Dom 05-00","http://www.clubmove.ch/","46.020296999999999","8.9573129999999992"
"Club Scherma Varese","Scherma","Via Fratelli Baroffio, 6, 21100 Varese VA, Italia","+39 338 923 4485","Lun 17:30-21:30 | Mar 17:30-21:30 | Mer 17:30-21:30 | Gio 17:30-21:30 | Ven 17:30-21:30 | Sab chiuso | Dom chiuso","http://www.clubschermavarese.it/","45.828941999999998","8.8304779999999994"
"Club Shung-Do-Kwan","Fitness","Via Varrone 12, 6500 Bellinzona, Svizzera","+41 91 825 50 13","Orari da verificare","","46.201225999999998","9.0292630000000003"
"Club Yoga della risata Saronno #ridiconme","Yoga","Via Roma, 119, 21047 Saronno VA, Italia","","Lun chiuso | Mar chiuso | Mer chiuso | Gio chiuso | Ven chiuso | Sab 10-11:30 | Dom chiuso","https://www.tizianaazzani.it/","45.623384000000001","9.0476740000000007"
"Combat Soul Assoc. Sportiva Dilettant.","Fitness","Via G. Miani, 4/A, 21052 Busto Arsizio VA, Italia","+39 0331 024995","Orari da verificare","","45.615205000000003","8.8531700000000004"
"Comune di Luino","Fitness","Piazza Crivelli Serbelloni, 1, 21016 Luino VA, Italia","+39 0332 543511","Lun 09-12, 15:30-17:30 | Mar chiuso | Mer 09-12 | Gio 09-12, 15:30-17:30 | Ven 09-12 | Sab 09-11:30 | Dom chiuso","http://www.comune.luino.va.it/","46.002479999999998","8.7424090000000003"
"Concept9 ASD","Fitness","Via Ruggero Bonghi, 6, 21052 Busto Arsizio VA, Italia","+39 366 874 9203","Lun 07-21 | Mar 09-21 | Mer 09-21 | Gio 09-21 | Ven 07-21 | Sab 08:30-12 | Dom chiuso","https://www.concept9.it/","45.607430000000001","8.8637230000000002"
"ConCronos","Fitness","Via Arbostra 2, 6900 Lugano, Svizzera","+41 91 940 24 00","Lun chiuso | Mar chiuso | Mer chiuso | Gio chiuso | Ven chiuso | Sab chiuso | Dom chiuso","http://www.concronos.ch/","46.023128999999997","8.9692050000000005"
"Contrology & Flow- Home Studio Pilates Classico","Pilates","Via Treviso, 8, 21052 Busto Arsizio VA, Italia","+39 338 951 6609","Lun 08-21:30 | Mar 08-21 | Mer 08-21 | Gio 07-21 | Ven 12:30-20 | Sab chiuso | Dom chiuso","https://www.facebook.com/profile.phpid=100088387914040","45.60398","8.8676879999999993"
"Core Pilates Studio","Pilates","Corso Elvezia 37, 6900 Lugano, Svizzera","+41 78 898 25 69","Lun 07-20 | Mar 07-20 | Mer 07-20 | Gio 07-20 | Ven 07-20 | Sab 08:30-14:30 | Dom chiuso","","46.010787999999998","8.9560650000000006"
"Cornèr Arena","Fitness","Via Chiosso 8, 6948 Porza, Svizzera","+41 91 935 19 20","Lun 13:45-16:45 | Mar 13:45-16:45 | Mer 14:45-16:45 | Gio 13:45-16:45 | Ven 13:45-16:15, 20:45-23 | Sab 13:45-17:45 | Dom 14-16:30","https://www.cornerarena.ch/","46.026479999999999","8.9634020000000003"
"Corpo Libero","Fitness","Via della Cereda, 31, 21100 Varese VA, Italia","+39 0332 227876","Orari da verificare","https://www.corpoliberovarese.it/","45.843741000000001","8.7999790000000004"
"Corsi privati difesa personale, corsi self defence per donne fitness & arti marziali","Difesa Personale | Fitness","6900 Lugano, Svizzera","+41 78 326 42 97","Lun 00:00-24:00 | Mar 08-19 | Mer 08-19 | Gio 08-19 | Ven 08-19 | Sab 08-19 | Dom 08-12","https://www.luganofitmartialart.com/","46.003433999999999","8.9507849999999998"
"Corso addetto antincendio a Tradate 19 marzo 2026","Fitness","Via Pavia, 18, 21049 Tradate VA, Italia","+39 347 535 3593","Lun 08-20 | Mar 08-20 | Mer 08-20 | Gio 08-20 | Ven 08-20 | Sab 08-20 | Dom chiuso","","45.68862","8.9088279999999997"
"Country Smile Sala Corsi","Fitness","Viale Giuseppe Motta 3, 6500 Bellinzona, Svizzera","+41 76 377 29 29","Lun 00:00-24:00 | Mar 00:00-24:00 | Mer 00:00-24:00 | Gio 00:00-24:00 | Ven chiuso | Sab chiuso | Dom 00:00-24:00","http://www.countrysmile.ch/","46.198618000000003","9.0240600000000004"
"CRAB's Fitness Boutique","Fitness","Via P. Togliatti, 21B, 21047 Saronno VA, Italia","+39 331 922 4565","Lun 09-21 | Mar 09-21 | Mer 09-21 | Gio 09-21 | Ven 09-21 | Sab 09-13 | Dom chiuso","","45.63409","9.0421720000000008"
"Crepaldi's Boxing Lab","Boxe","Viale Padre G. B. Aguggiari, 77, 21100 Varese VA, Italia","+39 351 541 0054","Lun 10:30-14:30, 17-21 | Mar 10:30-14:30, 17-21 | Mer 10:30-14:30, 17-21 | Gio 10:30-14:30, 17-21 | Ven 10:30-14:30, 17-21 | Sab chiuso | Dom chiuso","","45.830100000000002","8.8230009999999996"
"Crespi Sport","Fitness","Via XV Agosto, 20/22, 21016 Luino VA, Italia","+39 0332 537689","Lun 15-19 | Mar 09:30-12:30, 15-19 | Mer 09:30-12:30, 15-19 | Gio 09:30-12:30, 15-19 | Ven 09:30-12:30, 15-19 | Sab 09:30-12:30, 15-19 | Dom chiuso","http://www.crespisport.com/","46.000909","8.7429790000000001"
"CrossFit Bellinzona","CrossFit | Fitness","Via del Carmagnola 28, 6517 Arbedo, Svizzera","+41 76 759 04 36","Lun 07-20 | Mar 07-20 | Mer 06-20 | Gio 07-20 | Ven 07-20 | Sab 10-12 | Dom chiuso","https://www.crossfitbellinzona.ch/","46.210177000000002","9.0403210000000005"
"CrossFit Bilitio","CrossFit | Fitness","In Tirada 31, 6528 Camorino, Svizzera","+41 77 487 28 40","Lun 06-21:15 | Mar 06-21:15 | Mer 06-21:15 | Gio 06-21:15 | Ven 06-21:15 | Sab 09-19 | Dom 09-19","http://www.crossfitbilitio.ch/","46.159585","8.9833979999999993"
"CrossFit Black Dahlia","CrossFit | Fitness","Corso S. Gottardo 104, 6830 Chiasso, Svizzera","+41 76 763 37 87","Orari da verificare","https://crossfitblackdahlia.ch/","45.837820999999998","9.0227570000000004"
"CrossFit Gallarate","CrossFit | Fitness","Via Tognasca, 21013 Gallarate VA, Italia","+39 347 402 3747","Lun 08-22 | Mar 08-22 | Mer 08-22 | Gio 08-22 | Ven 08-21:30 | Sab 08:30-13 | Dom 09-12:30","https://www.crossfitgallarate.com/","45.642180000000003","8.8215430000000001"
"CrossFit il Tempio","CrossFit | Fitness","Via Cassano Magnago, 6, 21052 Busto Arsizio VA, Italia","+39 347 714 5177","Lun 09:30-13:30, 16:30-22 | Mar 09:30-13:30, 17-21:30 | Mer 06-13:30, 17-22 | Gio 09:30-13:30, 17-21:30 | Ven 06-13:30, 16:30-21:30 | Sab 08:30-12:30 | Dom chiuso","https://crossfitiltempio.altervista.org/","45.625281000000001","8.8521529999999995"
"CrossFit Locarno","CrossFit | Fitness","Via S. Gottardo 1, 6600 Locarno, Svizzera","+41 79 815 03 80","Lun 12-20:30 | Mar 06:30-19:30 | Mer 12-20:30 | Gio 06:30-20:30 | Ven 12-20:30 | Sab 11-12 | Dom chiuso","http://www.crossfitlocarno.com/","46.173734000000003","8.8019999999999996"
"CrossFit Lugano","CrossFit | Fitness","Via Fola 11, 6963 Lugano, Svizzera","+41 79 198 84 20","Lun 06-20 | Mar 06-20 | Mer 06-20 | Gio 06-20 | Ven 06-20 | Sab 06-20 | Dom 08-18","http://www.crossfitlugano.com/","46.016795000000002","8.9631980000000002"
"CrossFit Motus Rostock","CrossFit | Fitness","Friedrichshöhe 3, 18059 Rostock","01573 0857776","Lun 08-20 | Mar 08-20 | Mer 08-20 | Gio 08-20 | Ven 08-20 | Sab 09-13 | Dom 09-13","https://www.crossfit-motus-rostock.com/","54.074638","12.061612999999999"
"CrossFit Saronno","CrossFit | Fitness","Viale Lombardia, 19, 21047 Saronno VA, Italia","+39 346 963 3701","Lun 06-21:15 | Mar 07-20:30 | Mer 06-21:15 | Gio 07-20:30 | Ven 06-21:15 | Sab 10-11:30 | Dom chiuso","https://www.crossfitsaronno.it/","45.614392000000002","9.0439500000000006"
"CrossFit Sturmflut","CrossFit | Fitness","Erich-Schlesinger-Straße 62, 18059 Rostock","01522 5416265","Lun 07:30-09:30, 15:30-20:30 | Mar 07:30-09:30, 15:30-20:30 | Mer 06:30-08:30, 14:30-20:30 | Gio 06:30-08:30, 15:30-20:30 | Ven 07:30-09:30, 14:30-20:30 | Sab 09:30-13:30 | Dom 09:30-13:30","https://www.crossfit-sturmflut.com/","54.073289000000003","12.138085"
"CrossFit Three F.","CrossFit | Fitness","Via Alessandro Volta, 26, 21040 Lozza VA, Italia","+39 338 541 0423","Lun 06-14, 15-21 | Mar 07-14, 15-21 | Mer 06-14, 15-21 | Gio 07-14, 16-21 | Ven 06-14, 15-21 | Sab 10-12 | Dom 10:30-11:30","https://www.crossfitthreefingers.com/","45.774945000000002","8.8669180000000001"
"CrossFit Varese","CrossFit | Fitness","Via I Maggio, 10/A, 21022 Azzate VA, Italia","+39 320 429 2731","Lun 10:30-13:30, 15:30-20:30 | Mar 12:30-13:30, 15:30-20:30 | Mer 10:30-13:30, 15:30-20:30 | Gio 12:30-13:30, 15:30-20:30 | Ven 10:30-13:30, 15:30-20:30 | Sab 10:30-11:30 | Dom chiuso","https://www.crossfitvarese.com/","45.772319000000003","8.7851630000000007"
"CrossFit Venegono Inferiore","CrossFit | Fitness","Via D. Chiesa, 22, 21040 Venegono Inferiore VA, Italia","+39 0331 865524","Lun 08-22 | Mar 08-22 | Mer 08-22 | Gio 08-22 | Ven 08-22 | Sab 08-18 | Dom 09-12:30","http://www.ilquintoseitu.it/","45.734006999999998","8.891591"
"CrossFit V-ONE","CrossFit | Fitness","Via Cesare Correnti, 2, 21100 Varese VA, Italia","+39 0332 812910","Lun 06-22:30 | Mar 06-22:30 | Mer 06-22:30 | Gio 06-22:30 | Ven 06-22:30 | Sab 08-13:30 | Dom 09-13","http://www.palestresporting.it/index.php/crossfit","45.797604999999997","8.8425960000000003"
"Crystal Piscine","Fitness","Via Statuto, 41, 21013 Gallarate VA, Italia","+39 333 907 9923","Orari da verificare","http://www.crystalpiscine.it/","45.684806999999999","8.7999569999999991"
"CSM Centro Sportivo Minusio SA","Fitness","Via S. Gottardo 51, 6648 Minusio, Svizzera","+41 91 743 45 58","Lun 08-21:30 | Mar 08-21:30 | Mer 08-21:30 | Gio 08-21:30 | Ven 08-21:30 | Sab 10-18 | Dom 14-18","http://csm-minusio.ch/","46.175224999999998","8.8095999999999997"
"CSRB Gianpietro Zappa","Fitness","Via Mulini 6, 6934 Bioggio, Svizzera","+41 91 611 10 55","Lun chiuso | Mar 09:30-14, 17-21:30 | Mer 09:30-21:30 | Gio 09:30-14, 17-21:30 | Ven 09:30-14, 17-21:30 | Sab 09-18 | Dom 13-17","https://www.bioggio.ch/CSRB-Gianpietro-Zappavis=2","46.011890999999999","8.909573"
"Curling Club Chiasso","Fitness","Pista di ghiaccio,, 6830 Chiasso, Svizzera","","Orari da verificare","http://www.curlingclubchiasso.ch/","45.833902000000002","9.0145859999999995"
"Curti Studio Salute","Fitness","Via Giulio Bizzozero, 7, 21100 Varese VA, Italia","+39 377 090 9555","Lun 08-20 | Mar 08-20 | Mer 08-20 | Gio 08-20 | Ven 08-20 | Sab chiuso | Dom chiuso","http://www.curtistudiosalute.com/","45.815904000000003","8.8264130000000005"
"Curti Training Room","Pilates","Via Giulio Bizzozero, 7, 21100 Varese VA, Italia","+39 375 557 3661","Lun 08:30-21 | Mar 08:30-21 | Mer 08:30-21 | Gio 08:30-21 | Ven 08:30-21 | Sab chiuso | Dom chiuso","https://www.curtitraining.it/","45.815736999999999","8.8260260000000006"
"Daniele Pinco - Personal Fitness Trainer - Coach","Fitness","Via Cesare Correnti, 2, 21100 Varese VA, Italia","+39 348 265 8461","Lun 06-22 | Mar 06-22 | Mer 06-22 | Gio 06-22 | Ven 06-22 | Sab chiuso | Dom 09-13","https://danielepinco.it/","45.797545","8.8429020000000005"
"Davide Rosignoli personal trainer formefitness varese","Fitness","Via Speri della Chiesa Jemoli, 15, 21100 Varese VA, Italia","+39 349 082 3480","Lun 07:30-21:30 | Mar 07:30-21:30 | Mer 07:30-21:30 | Gio 07:30-21:30 | Ven 07:30-21:30 | Sab 07:30-14:30 | Dom chiuso","http://www.formefitness.it/","45.820476999999997","8.8232890000000008"
"DD FITNESS VARESE - Pilates Boutique","Pilates | Fitness","Via Piave, 12, 21100 Varese VA, Italia","+39 378 304 5765","Lun 07-20 | Mar 07-20 | Mer 07-20 | Gio 07-20 | Ven 07-20 | Sab 07-20 | Dom chiuso","https://www.pilatesboutique.it/","45.814239000000001","8.8315429999999999"
"De Nittis Choy Lay Fut Switzerland SiHing Emanuel Galati","Kung Fu","Via Calprino 3, 6900 Paradiso, Svizzera","+41 76 298 44 33","Lun chiuso | Mar chiuso | Mer chiuso | Gio chiuso | Ven chiuso | Sab 11-12 | Dom chiuso","https://www.denittischoylayfutswitzerland.com/","45.989013","8.9404859999999999"
"Deaishin Karate Do Varese","Karate","Via Legnani, 11, 21100 Varese VA, Italia","+39 348 581 5980","Lun 19:30-21:30 | Mar 18:30-21:30 | Mer 19:30-21:30 | Gio 19:30-21:30 | Ven chiuso | Sab chiuso | Dom chiuso","http://www.deaishin-varese.it/","45.835875000000001","8.8195420000000002"
"DeaYoga","Yoga","Viale A. Volta, 6830 Chiasso, Svizzera","+41 79 549 55 62","Orari da verificare","https://www.deayoga.ch/agenda/","45.835025999999999","9.0330519999999996"
"DeaYoga - Gruppo AyurYoga e Meditazione Ticino","Yoga","Via Passeggiata 11B, 6853 Ligornetto, Svizzera","+41 79 549 55 62","Orari da verificare","http://www.deayoga.ch/","45.861454000000002","8.9442280000000007"
"Decathlon Sant'Antonino","Fitness","Via Serrai 10, 6592 Sant'Antonino, Svizzera","+41 91 840 10 20","Lun 09-19 | Mar 09-19 | Mer 09-19 | Gio 09-20 | Ven 09-19 | Sab 09-18:30 | Dom chiuso","https://www.decathlon.ch/it/utm_campaign=local-gmb&utm_content=Sant%27Antonino~2132&utm_medium=organic&utm_source=google","46.154671999999998","8.9658840000000009"
"DELTA RELAX WELLNESS & FITNESS CENTER","Fitness","Via Delta 155, 6612 Ascona, Svizzera","+41 91 785 77 85","Lun 08-20 | Mar 08-20 | Mer 08-20 | Gio 08-20 | Ven 08-20 | Sab 08-20 | Dom 08-20","https://www.parkhoteldelta.ch/it/wellness-ascona","46.159897999999998","8.7843610000000005"
"DESEO Pilates & Massaggi Lugano","Pilates","Corso Enrico Pestalozzi 11, 6900 Lugano, Svizzera","+41 91 923 55 77","Lun 07-21 | Mar 07-21 | Mer 07-21 | Gio 07-21 | Ven 07-21 | Sab 10-13 | Dom chiuso","http://www.deseo.ch/","46.006157999999999","8.9529379999999996"
"Dharma Yoga","Yoga","Corso S. Gottardo 82, 6830 Chiasso, Svizzera","+41 76 605 57 45","Lun 09-00 | Mar 09-00 | Mer 09-00 | Gio 09-00 | Ven 09-00 | Sab 09-00 | Dom chiuso","https://www.dharmayoga.ch/","45.836345000000001","9.0257649999999998"
"Difensiva Varese Arte Marziale di Difesa Personale","Difesa Personale","Via Olona, 29, 21056 Induno Olona VA, Italia","+39 320 145 8721","Lun chiuso | Mar chiuso | Mer chiuso | Gio chiuso | Ven chiuso | Sab 09-12:30 | Dom chiuso","https://difensiva-varese.github.io/difensiva/","45.844987000000003","8.8289039999999996"
"Dinamico Sport Dimension di Daniele Bernasconi","Fitness","Via Moree 3, 6850 Mendrisio, Svizzera","+41 76 374 21 11","Lun 08-20 | Mar 08-20 | Mer 08-20 | Gio 08-20 | Ven 08-20 | Sab chiuso | Dom chiuso","http://dinamico.ch/","45.872506999999999","8.9803580000000007"
"Do Yu Kai Chiasso","Fitness","Via C.Cattaneo 10, 6830 Chiasso, Svizzera","+41 91 682 83 76","Lun 17:30-20:30 | Mar 16:30-20:30 | Mer 13:45-20:30 | Gio 17-20:30 | Ven 18-20:30 | Sab 14-18:30 | Dom chiuso","http://www.dykchiasso.ch/","45.831817999999998","9.0271050000000006"
"Dojo Karate Kyokushin Tensho Lugano","Karate","Via Trevano 29, 6900 Lugano, Svizzera","","Lun chiuso | Mar 20-21:30 | Mer 14-15 | Gio 20-21:30 | Ven 17:30-18:30 | Sab chiuso | Dom chiuso","http://www.dojotensho.ch/","46.015634","8.955073"
"Dojo Karate Tensho Lugano","Karate","Via alla Campagna 7, 6900 Lugano, Svizzera","+41 76 305 35 54","Lun 17-19:30 | Mar 20-21:30 | Mer 14-16 | Gio 20-21:30 | Ven 18-20:30 | Sab chiuso | Dom chiuso","http://www.dojotensho.ch/","46.015351000000003","8.9571880000000004"
"Donkey CrossFit","MMA | CrossFit","Via Parma, 2, 21052 Busto Arsizio VA, Italia","+39 349 375 5969","Lun 07-21:30 | Mar 10-21:30 | Mer 07-21:30 | Gio 07-21:30 | Ven 07-21:30 | Sab 10-13 | Dom chiuso","http://www.donkeycrossfit.it/","45.603541999999997","8.8513870000000008"
"Dott. Federico Piemonti - Nutrizionista","Fitness","Via Gaudenzio Ferrari, 21/Scala B, 21047 Saronno VA, Italia","+39 351 324 4735","Lun chiuso | Mar chiuso | Mer chiuso | Gio chiuso | Ven chiuso | Sab chiuso | Dom chiuso","https://www.piemontinutrizionista.it/","45.623722999999998","9.0317600000000002"
"Dott. Luca Bellorini - Neuroscienze. Mindfulness. Tecniche di rilassamento","Fitness","Via delle Medaglie D'Oro, 21100 Varese VA, Italia","","Lun 09-19 | Mar 09-19 | Mer 09-19 | Gio 09-19 | Ven chiuso | Sab chiuso | Dom chiuso","https://belloriniluca.wixsite.com/home","45.815300000000001","8.8309350000000002"
"Douglas Balmelli Personal Trainer","Fitness","Riva Antonio Caccia 1, 6900 Lugano, Svizzera","+41 76 387 56 28","Lun 07-22 | Mar 07-22 | Mer 07-22 | Gio 07-22 | Ven 07-22 | Sab 07-22 | Dom 07-22","https://www.luganopersonalfit.ch/","45.998668000000002","8.9481079999999995"
"Dr.Frontini Federico - Riabilitazione e Fisioterapia - Onde D'urto - Plantari - FisioWellness","Fitness","Via Giacomo Galli, 5, 21049 Tradate VA, Italia","+39 346 635 4752","Lun 08:30-20:30 | Mar 08:30-20:30 | Mer 08:30-20:30 | Gio 08:30-20:30 | Ven 08:30-20:30 | Sab chiuso | Dom chiuso","https://centrofisiowellness.it/","45.703952999999998","8.9202569999999994"
"Dragon's Club","Fitness","Via d'Argine 1, 6930 Bedano, Svizzera","","Lun 09-17 | Mar 09-17 | Mer 09-17 | Gio 09-17 | Ven 09-17 | Sab chiuso | Dom chiuso","https://www.dragonsclub.ch/","46.044941000000001","8.9243559999999995"
"Easy estetica e benessere","Fitness","Viale Guglielmo Marconi, 7b, 21049 Tradate VA, Italia","+39 0331 142 4592","Lun chiuso | Mar 11-19 | Mer 09-17 | Gio 09-19 | Ven 09-20 | Sab 09-17 | Dom chiuso","","45.708202999999997","8.9111999999999991"
"Ecocentro di Chiasso","Fitness","Via C.Cattaneo 3, 6830 Chiasso, Svizzera","+41 58 122 49 11","Lun 07:30-11, 13:45-16:30 | Mar 07:30-11, 13:45-16:30 | Mer 07:30-11, 13:45-16:30 | Gio 07:30-11, 13:45-16:30 | Ven 07:30-11, 13:45-16:30 | Sab 08-11:45 | Dom chiuso","http://www.chiasso.ch/index.phpid=132","45.830651000000003","9.0292860000000008"
"Electra Fitness Ems Bellinzona","Fitness","Via Codeborgo 1, 6500 Bellinzona, Svizzera","+41 76 814 65 71","Lun 08:30-20 | Mar 08:30-20 | Mer 08:30-20 | Gio 08:30-20 | Ven 08:30-20 | Sab chiuso | Dom chiuso","https://electrafitness.ch/","46.192203999999997","9.0231870000000001"
"Elemental","Fitness","Via Carrobbio, 8, 21100 Varese VA, Italia","+39 348 692 5138","Lun chiuso | Mar chiuso | Mer chiuso | Gio chiuso | Ven chiuso | Sab 07-21 | Dom chiuso","","45.816603999999998","8.8257440000000003"
"Elements Fitness Club","Fitness","Via Cantonale 89, 6595 Lavertezzo, Svizzera","+41 91 859 39 89","Lun 09-21 | Mar 09-13:15, 14-21 | Mer 09-11, 14:30-21 | Gio 09-13:15, 14-21 | Ven 09-11, 14:30-20:30 | Sab 09-12 | Dom chiuso","http://www.elementsfitnessclub.ch/","46.176116999999998","8.8878109999999992"
"ELETTROFITNESS Saronno","Fitness","Via Molino, 2, 21047 Saronno VA, Italia","+39 349 118 0192","Lun 09-20 | Mar 09-20 | Mer 09-20 | Gio 09-20 | Ven 09-20 | Sab 09-14 | Dom chiuso","http://www.elettrofitness.com/","45.624313999999998","9.0339720000000003"
"Emotion - Fitness and Wellness","Fitness","Via Alessandro Volta, 11, 21010 Germignaga VA, Italia","+39 0332 533044","Lun 09-21:30 | Mar 09-21:30 | Mer 09-21:30 | Gio 09-21:30 | Ven 09-21:30 | Sab 09-14 | Dom 10-13","http://www.my-emotion.it/","45.986004000000001","8.7388680000000001"
"Encotech SA","Fitness","Via Cadepiano 14, 6917 Lugano, Svizzera","+41 91 971 27 11","Lun 08:30-18:30 | Mar 08:30-18:30 | Mer 08:30-18:30 | Gio 08:30-18:30 | Ven 08:30-18:30 | Sab chiuso | Dom chiuso","http://www.encotech.ch/","45.963504","8.9194870000000002"
"Endless Will - Margherita Montes","Fitness","Via Tiro a Segno, 5A, 21013 Gallarate VA, Italia","+39 392 525 8339","Lun 10-18 | Mar 10-18 | Mer 10-18 | Gio 10-18 | Ven 10-18 | Sab 10-11:30 | Dom chiuso","https://urendlesswill.com/","45.650402","8.8040350000000007"
"Enjoy Fisio Training SA","Fitness","Via Carlo Pasta 25, 6850 Mendrisio, Svizzera","+41 91 224 12 34","Lun 07-20 | Mar 07-20 | Mer 07-20 | Gio 07-20 | Ven 07-20 | Sab chiuso | Dom chiuso","https://enjoyfisiotraining.com/","45.875745000000002","8.9869540000000008"
"Eolo Sport City","Fitness","Corso Sempione, 194/6, 21052 Busto Arsizio VA, Italia","+39 331 388 6880","Lun 08:30-00 | Mar 08:30-00 | Mer 08:30-00 | Gio 08:30-00 | Ven 08:30-00 | Sab 08:30-22 | Dom 08:30-22","https://eolosportcity.it/","45.634897000000002","8.8348370000000003"
"EqualArmor","Fitness","Viale dei Faggi 9, 6900 Lugano, Svizzera","+41 79 948 41 63","Lun chiuso | Mar chiuso | Mer chiuso | Gio chiuso | Ven chiuso | Sab 08-22:30 | Dom chiuso","https://equalarmor.ch/","46.008321000000002","8.9638679999999997"
"Essenza Pilates Gallarate","Pilates","Via Palestro, 10, 21013 Gallarate VA, Italia","","Orari da verificare","https://www.essenzapilates.it/","45.659784000000002","8.7853600000000007"
"Essenziale Di Genny","Yoga","Via Angelo Maspoli 21, 6850 Mendrisio, Svizzera","+41 77 496 89 89","Orari da verificare","","45.876477999999999","8.9802090000000003"
"essenzialmente yoga","Yoga","Via Dante Alighieri, 13, 21047 Saronno VA, Italia","+39 349 331 3452","Lun chiuso | Mar 09-21 | Mer chiuso | Gio 09-21 | Ven 09-21 | Sab chiuso | Dom chiuso","","45.619785","9.0425719999999998"
"ESTETICA PAOLA L'ESSENZA DEL FASCINO","Fitness","Via Bernardino Luini, 37, 21016 Luino VA, Italia","+39 342 015 5155","Lun chiuso | Mar 08:30-17 | Mer 08:30-17 | Gio 08:30-17 | Ven 08:30-17 | Sab 08:30-17 | Dom chiuso","https://centroesteticapaola.it/","45.998117000000001","8.7479940000000003"
"Etrea Sport Horses","Fitness","Via Mortara, 44, 21052 Busto Arsizio VA, Italia","+39 0331 351166","Lun 08-18 | Mar 08-18 | Mer 08-18 | Gio 08-18 | Ven 08-18 | Sab 08-18 | Dom 08-18","http://www.etrea.it/","45.580131999999999","8.8499079999999992"
"Evolution Climbing Center","Fitness","Via Vedeggio 7, 6807 Torricella-Taverne, Svizzera","+41 91 930 91 18","Lun 17-22 | Mar 17-22 | Mer 12-22 | Gio 12-22 | Ven 12-22 | Sab 10-19 | Dom 10-19","http://www.evolutioncenter.ch/","46.05941","8.929646"
"E-work Arena","Fitness","Viale Gabardi, 43, 21052 Busto Arsizio VA, Italia","","Lun chiuso | Mar chiuso | Mer chiuso | Gio chiuso | Ven chiuso | Sab 09-20 | Dom chiuso","","45.598861999999997","8.8658909999999995"
"EXPERIENCE - Personal Training Service di Daniele Cimino","Fitness","Via Francesco Borromini 20, 6850 Mendrisio, Svizzera","+41 76 369 78 97","Lun 07:30-21 | Mar 08:30-21 | Mer 07:30-21 | Gio 08:30-21 | Ven 07:30-21 | Sab chiuso | Dom chiuso","http://www.xpts.ch/","45.869311000000003","8.9741540000000004"
"F.C. Lugano S.A. - Biglietteria e Sportello","Fitness","Via G.B. Pioda 14, 6900 Lugano, Svizzera","+41 91 922 86 72","Lun 09-12, 13:30-17 | Mar 09-12, 13:30-17 | Mer 09-12, 13:30-17 | Gio 09-12, 13:30-17 | Ven 09-12, 13:30-17 | Sab chiuso | Dom chiuso","https://www.fclugano.com/","46.007677999999999","8.9546229999999998"
"Fabia Verda","Yoga","Via Pizzo di Claro 12, 6500 Bellinzona, Svizzera","+41 79 227 08 85","Orari da verificare","https://yellow.local.ch/d/YStnfLXBU5sadSfl22DE2A","46.202679000000003","9.0230340000000009"
"Fast Fit Bellinzona","Fitness","Via Codeborgo 1, 6500 Bellinzona, Svizzera","+41 76 403 47 95","Orari da verificare","https://www.fastfitswiss.ch/","46.192233000000002","9.0231700000000004"
"Fast Fit Locarno","Fitness","Via Vincenzo Vela, 6600 Locarno, Svizzera","+41 76 403 47 95","Lun 09-19 | Mar 09-19 | Mer 09-19 | Gio 09-19 | Ven 09-19 | Sab chiuso | Dom chiuso","http://www.fastfitswiss.ch/","46.167028000000002","8.7955249999999996"
"Fast Fit Lugano","Fitness","Via Carlo Maderno 26, 6900 Lugano, Svizzera","+41 76 403 47 95","Lun 06-20:30 | Mar 06-20:30 | Mer 06-20:30 | Gio 06-20:30 | Ven 06-20:30 | Sab chiuso | Dom chiuso","https://www.fastfitswiss.ch/","46.011218","8.9556570000000004"
"Fast Fit Mendrisio","Fitness","Via Moree 3, 6850 Mendrisio, Svizzera","+41 76 403 47 95","Lun 08-18 | Mar 08-19:30 | Mer chiuso | Gio 08-19:30 | Ven 08-18 | Sab chiuso | Dom chiuso","https://www.fastfitswiss.ch/","45.872486000000002","8.9805890000000002"
"Federazione Padel Ticino","Fitness","Via Pobbia 30, 6515 Sementina, Svizzera","+41 79 337 68 38","Lun 09-12 | Mar 09-12 | Mer 09-12 | Gio 09-12 | Ven 09-12 | Sab chiuso | Dom chiuso","","46.179270000000002","9.0003430000000009"
"Ficus Lounge Bar","Fitness","Via al Ticino 44, 6514 Sementina, Svizzera","+41 91 840 22 24","Lun 07-00 | Mar 07-00 | Mer 07-00 | Gio 07-00 | Ven 07-02 | Sab 09-02 | Dom 09-00","https://ficusloungebar.ch/","46.177886000000001","8.9956200000000006"
"FIGHT ACADEMY","Fitness","Via Per Caronno Varesino, 2, 21040 Morazzone VA, Italia","+39 340 342 8201","Lun chiuso | Mar chiuso | Mer chiuso | Gio chiuso | Ven chiuso | Sab 10-17 | Dom chiuso","http://www.fightacademy.it/wordpress/","45.761744999999998","8.8311600000000006"
"Fight Academy Ticino","Fitness","Via la Santa, 6962 Viganello, Svizzera","+41 78 828 66 77","Lun 08-22 | Mar 08-22 | Mer 08-22 | Gio 08-22 | Ven 08-22 | Sab 08-22 | Dom 08-22","","46.011769000000001","8.9618669999999998"
"Fight Gym Club Lugano","Fitness","Stampa 1, 6952 Canobbio, Svizzera","+41 91 940 32 20","Lun chiuso | Mar chiuso | Mer chiuso | Gio chiuso | Ven chiuso | Sab 08:30-13:30 | Dom chiuso","https://fightgymclub.ch/","46.036731000000003","8.9701730000000008"
"Figurella Luino","Fitness","Via XV Agosto, 7, 21016 Luino VA, Italia","+39 0332 510901","Lun 09:30-19 | Mar 10-20 | Mer 10-14 | Gio 10-20 | Ven 09-19 | Sab chiuso | Dom chiuso","https://www.figurella.it/centro/figurella-luino/","46.001263999999999","8.7426060000000003"
"Figurella Varese","Fitness","Via Felice Orrigoni, 8, 21100 Varese VA, Italia","+39 0332 483450","Lun 10-20 | Mar 10-20 | Mer 10-20 | Gio 10-20 | Ven 10-14 | Sab chiuso | Dom chiuso","https://www.figurella.it/centro/figurella-varese/","45.816270000000003","8.8309470000000001"
"First Studio Personal trainer / palestra","Fitness","First Studio - Centro Sei (primo piano, Via Vincenzo Vela 5, 6600 Locarno, Svizzera","+41 76 281 71 41","Lun 07-21 | Mar 07-21 | Mer 07-21 | Gio 07-21 | Ven 07-21 | Sab 09-15 | Dom chiuso","https://firststudiopersonaltraining.ch/","46.167000000000002","8.7954950000000007"
"First Studio Personal Training Bellinzona","Fitness","Via Codeborgo 1, 6500 Bellinzona, Svizzera","+41 79 963 38 15","Lun 06-21 | Mar 06-21 | Mer 06-21 | Gio 06-21 | Ven 06-21 | Sab 06-13 | Dom chiuso","https://firststudiopersonaltraining.ch/","46.192242","9.0231580000000005"
"First Studio Personal Training Giubiasco","Fitness","Viale Stazione 3, 6512 Giubiasco, Svizzera","+41 76 281 71 41","Lun 08-20 | Mar 08-20 | Mer 08-20 | Gio 08-20 | Ven 08-20 | Sab chiuso | Dom chiuso","https://www.firststudiopersonaltraining.ch/","46.173147999999998","9.0084730000000004"
"First Studio Personal Training Lugano","Fitness","Via Pretorio 13, 6900 Lugano, Svizzera","+41 76 844 42 75","Lun 08:30-20:30 | Mar 08:30-20:30 | Mer 08:30-20:30 | Gio 08:30-20:30 | Ven 08:30-20:30 | Sab 08-13 | Dom chiuso","https://firststudiopersonaltraining.ch/","46.006689000000001","8.9519190000000002"
"Fisio Sport Sagl","Fitness","Via Vincenzo d'Alberti 1, 6830 Chiasso, Svizzera","+41 77 490 75 19","Lun 08-19 | Mar 08-19 | Mer 08-19 | Gio 08-19 | Ven 08-19 | Sab chiuso | Dom chiuso","https://www.fisiosportchiasso.ch/","45.836455999999998","9.0245639999999998"
"Fisio4Wellness ASD - Palestra a Varese","Fitness","Via Giovanni XXIII, 2, 21020 Buguggiate VA, Italia","+39 392 269 9518","Lun 08-21 | Mar 08-21 | Mer 08-21 | Gio 08-21 | Ven 08-21 | Sab 08-13:30 | Dom chiuso","http://fisio4wellness.it/","45.780560000000001","8.8110239999999997"
"FisioMed Insubria","Fitness","Via Dorligo Albisetti, 9, 21049 Tradate VA, Italia","+39 351 412 2119","Lun 08-12, 13:30-20 | Mar 08-12, 13:30-20 | Mer 08-12, 13:30-20 | Gio 08-12, 13:30-20 | Ven 08-12, 13:30-20 | Sab 09-12 | Dom chiuso","https://www.fisiomedinsubria.it/","45.709038","8.9027510000000003"
"Fisioterapia Atlantide Bellinzona","Fitness","Via Franco Zorzi 36, 6500 Bellinzona, Svizzera","+41 91 820 60 60","Lun 07-20 | Mar 07-20 | Mer 07-20 | Gio 07-20 | Ven 07-20 | Sab chiuso | Dom chiuso","https://bellinzona.fisioterapiaatlantide.ch/","46.183801000000003","9.0123929999999994"
"Fisioterapia Salus - Bellinzona","Fitness","Via cancelliere Molo 18, 6500 Bellinzona, Svizzera","+41 91 226 47 33","Lun 08-19:30 | Mar 08-19:30 | Mer 08-19:30 | Gio 08-19:30 | Ven 08-19:30 | Sab chiuso | Dom chiuso","https://www.fisioterapiasalus.ch/","46.195518999999997","9.0279830000000008"
"Fisioterapia Salus - Giubiasco","Fitness","Largo Libero Olgiati 73, 6512 Giubiasco, Svizzera","+41 91 225 83 83","Lun 07:30-19 | Mar 07:30-19 | Mer 07:30-19 | Gio 07:30-19 | Ven 07:30-19 | Sab chiuso | Dom chiuso","https://www.fisioterapiasalus.ch/","46.172671999999999","9.0096760000000007"
"FisioteraPier - Fisioterapia & Benessere","Fitness","Via Rovereto, 9, 21100 Varese VA, Italia","+39 351 332 7445","Lun 08-20:30 | Mar 08-20:30 | Mer 08-20:30 | Gio 08-20:30 | Ven 08-20:30 | Sab 09-17:30 | Dom chiuso","","45.829289000000003","8.8500340000000008"
"Fit And Go Busto Arsizio","Fitness","Viale Stelvio, 41, 21052 Busto Arsizio VA, Italia","+39 375 129 6140","Lun 08-20 | Mar 07-20 | Mer 08-20 | Gio 07-20 | Ven 08-20 | Sab 08-13 | Dom chiuso","https://fitandgo.it/","45.623319000000002","8.8418310000000009"
"Fit And Go Gallarate","Fitness","Viale Milano, 2, 21013 Gallarate VA, Italia","+39 375 106 9418","Lun 08-20 | Mar 08-20 | Mer 08-20 | Gio 08-20 | Ven 08-20 | Sab 08-14 | Dom chiuso","","45.656959999999998","8.7985609999999994"
"Fit And Go Saronno","Fitness","Via Alessandro Volta, 7, 21047 Saronno VA, Italia","+39 348 614 1965","Lun 06-21 | Mar 06-21 | Mer 06-21 | Gio 06-21 | Ven 06-21 | Sab 07-14 | Dom chiuso","https://www.fitandgo.it/","45.630071999999998","9.0354200000000002"
"Fit Check Abbigliamento Luino","Fitness","Via Confalonieri, 23, 21016 Luino VA, Italia","+39 320 764 4878","Lun 10-12, 15-19 | Mar chiuso | Mer 10-12, 15-19 | Gio 10-12, 15-19 | Ven 10-12, 15-19 | Sab 09-15 | Dom chiuso","https://fitcheckluino.com/","46.002751000000004","8.7458749999999998"
"Fit Easy Varese","Fitness","Via Salvore, 20/A, 21100 Varese VA, Italia","+39 0332 315218","Lun 06-22 | Mar 06-22 | Mer 06-22 | Gio 06-22 | Ven 06-22 | Sab 08-17 | Dom 08-17","http://www.fit-easy.com/","45.813606999999998","8.8392619999999997"
"Fit Evolution Giubiasco","Fitness","Via Campagna 2E, 6512 Giubiasco, Svizzera","+41 76 403 47 95","Lun 09-20 | Mar 09-19 | Mer 14-20 | Gio 09-20 | Ven 09-19 | Sab 09-14 | Dom chiuso","http://www.fastfitswiss.ch/","46.16901","8.9997679999999995"
"Fit Express Busto Arsizio","Fitness","Viale Luigi Cadorna, 15, 21052 Busto Arsizio VA, Italia","+39 392 383 7927","Lun 06:30-22:30 | Mar 06:30-22:30 | Mer 06:30-22:30 | Gio 06:30-22:30 | Ven 06:30-22:30 | Sab 08-18 | Dom 08-14","https://www.fitexpress.it/club/busto-arsizio/","45.609110999999999","8.8586910000000003"
"Fit Express Saronno","Fitness","Viale Lombardia, 2, 21047 Saronno VA, Italia","+39 340 841 4158","Lun 00:00-24:00 | Mar 00:00-24:00 | Mer 00:00-24:00 | Gio 00:00-24:00 | Ven 00:00-24:00 | Sab 00:00-24:00 | Dom 00:00-24:00","https://www.fitexpress.it/","45.614396999999997","9.0392770000000002"
"Fit Lab 2.0","Fitness","Viale Castagnola 21/G, 6900 Lugano, Svizzera","+41 78 786 46 84","Lun 06-20 | Mar 06-20 | Mer 06-20 | Gio 06-20 | Ven 06-20 | Sab 07-13 | Dom chiuso","https://fitnesslab20.ch/","46.006481999999998","8.9663850000000007"
"fit+ Contone","Fitness","Via Campo dell'Era 21, 6594 Contone, Svizzera","+41 76 621 85 73","Lun 05-00 | Mar 05-00 | Mer 05-00 | Gio 05-00 | Ven 05-00 | Sab 05-00 | Dom 05-00","https://contone.fitplus-club.ch/","46.150880999999998","8.9244699999999995"
"FitActive","Fitness","Via Sempione, 27, 21011 Casorate Sempione VA, Italia","+39 351 836 7572","Lun 00:00-24:00 | Mar 00:00-24:00 | Mer 00:00-24:00 | Gio 00:00-24:00 | Ven 00:00-24:00 | Sab 00:00-24:00 | Dom 00:00-24:00","http://www.fitactive.it/i-club/casorate-sempione.php","45.671326999999998","8.7500590000000003"
"FitActive Bellinzona","Fitness","Via Industrie 8, 6592 Bellinzona, Svizzera","+41 78 348 23 24","Lun 00:00-24:00 | Mar 00:00-24:00 | Mer 00:00-24:00 | Gio 00:00-24:00 | Ven 00:00-24:00 | Sab 00:00-24:00 | Dom 00:00-24:00","https://www.fitactive.it/","46.155759000000003","8.9680990000000005"
"FitActive Busto Arsizio","Fitness","Via Busto Fagnano, 29, 21052 Busto Arsizio VA, Italia","+39 375 637 9318","Lun 00:00-24:00 | Mar 00:00-24:00 | Mer 00:00-24:00 | Gio 00:00-24:00 | Ven 00:00-24:00 | Sab 00:00-24:00 | Dom 00:00-24:00","http://www.fitactive.it/i-club/busto-arsizio.php","45.627113000000001","8.8573020000000007"
"FitActive Castellanza","Fitness","Via Asti, 5, 21053 Castellanza VA, Italia","+39 352 014 6655","Lun 00:00-24:00 | Mar 00:00-24:00 | Mer 00:00-24:00 | Gio 00:00-24:00 | Ven 00:00-24:00 | Sab 00:00-24:00 | Dom 00:00-24:00","https://fitactive.it/i-club/FitActive%20Castellanza.php","45.608379999999997","8.874098"
"FitActive Lugano","Fitness","Riva Antonio Caccia 1/A, 6900 Lugano, Svizzera","+41 76 232 70 24","Lun 00:00-24:00 | Mar 00:00-24:00 | Mer 00:00-24:00 | Gio 00:00-24:00 | Ven 00:00-24:00 | Sab 00:00-24:00 | Dom 00:00-24:00","https://www.fitactive.it/","45.998342999999998","8.9477419999999999"
"FitActive Mendrisio","Fitness","Via Francesco Borromini 6, 6850 Mendrisio, Svizzera","+41 76 424 68 50","Lun 00:00-24:00 | Mar 00:00-24:00 | Mer 00:00-24:00 | Gio 00:00-24:00 | Ven 00:00-24:00 | Sab 00:00-24:00 | Dom 00:00-24:00","https://www.fitactive.it/","45.873055000000001","8.9781130000000005"
"FitActive Saronno","Fitness","Via Giuseppe Ungaretti, 34, 21047 Saronno VA, Italia","+39 352 085 2371","Lun 00:00-24:00 | Mar 00:00-24:00 | Mer 00:00-24:00 | Gio 00:00-24:00 | Ven 00:00-24:00 | Sab 00:00-24:00 | Dom 00:00-24:00","https://www.fitactive.it/i-club/saronno.php","45.617615999999998","9.0496549999999996"
"FitActive Varese","Fitness","Viale Belforte, 5 H, 21100 Varese VA, Italia","+39 392 512 2720","Lun 00:00-24:00 | Mar 00:00-24:00 | Mer 00:00-24:00 | Gio 00:00-24:00 | Ven 00:00-24:00 | Sab 00:00-24:00 | Dom 00:00-24:00","https://www.fitactive.it/i-club/varese.php","45.822274","8.8377560000000006"
"FitActive Varese Saffi","Fitness","Via Aurelio Saffi, 88, 21100 Varese VA, Italia","+39 375 990 2323","Lun 10-20 | Mar 10-20 | Mer 10-20 | Gio 10-20 | Ven 10-20 | Sab 10-18 | Dom 10-20","https://www.fitactive.it/","45.834854999999997","8.7970810000000004"
"Fitness by Mariano Villena - The Garage of Body Building","Fitness","Via Cantonale 6, 6917 Barbengo, Svizzera","+41 76 404 10 10","Lun 00:00-24:00 | Mar 00:00-24:00 | Mer 00:00-24:00 | Gio 00:00-24:00 | Ven 00:00-24:00 | Sab 00:00-24:00 | Dom 00:00-24:00","http://www.mariano-villena.ch/","45.966262999999998","8.9243500000000004"
"Fitness Hub Lugano","Fitness","Corso Elvezia 10, 6900 Lugano, Svizzera","+41 78 726 82 37","Lun 06:30-19 | Mar 06:30-19 | Mer 06:30-19 | Gio 06:30-19 | Ven 06:30-19 | Sab 08-12 | Dom chiuso","http://www.fitnesshublugano.ch/","46.007053999999997","8.9558959999999992"
"Fitness su Misura","Fitness","Via Leopardi, 1, 21046 Malnate VA, Italia","+39 333 477 6164","Lun 07-21 | Mar 07-21 | Mer 07-14 | Gio 07-21 | Ven 07-21 | Sab 07-13 | Dom chiuso","","45.798926000000002","8.8833339999999996"
"FitProject Sagl","Fitness","Via Pretorio 13A, 6900 Lugano, Svizzera","+41 76 754 86 44","Lun 06-21 | Mar 06-21 | Mer 06-21 | Gio 06-21 | Ven 06-21 | Sab 07-13 | Dom chiuso","https://www.fitprojectlugano.com/","46.006689000000001","8.9519190000000002"
"FitUP Busto Arsizio","Fitness","Corso Sempione, 194, 21052 Busto Arsizio VA, Italia","+39 0331 126 0128","Lun 00:00-24:00 | Mar 00:00-24:00 | Mer 00:00-24:00 | Gio 00:00-24:00 | Ven 00:00-24:00 | Sab 00:00-24:00 | Dom 00:00-24:00","https://fitup.it/busto-arsizio/","45.635185","8.8344170000000002"
"Flamboyan Club","Fitness","Corso XX Settembre, 55, 21052 Busto Arsizio VA, Italia","+39 392 706 4758","Lun chiuso | Mar chiuso | Mer chiuso | Gio chiuso | Ven chiuso | Sab chiuso | Dom chiuso","http://www.flamboyanclub.it/","45.613064999999999","8.8662670000000006"
"Floating Chiasso","Fitness","V. Giuseppe Motta 22, 6830 Chiasso, Svizzera","+41 91 608 30 30","Lun 09-12:45, 13:45-17:30 | Mar 09-12:45, 13:45-17:30 | Mer 09-12:45, 13:45-17:30 | Gio 09-12:45, 13:45-17:30 | Ven 09-12:45, 13:45-17:30 | Sab chiuso | Dom chiuso","https://www.floating.ch/","45.833063000000003","9.0302019999999992"
"Florence Steger Centro Ayurharmony","Fitness","Via Giulia 48h, 6855 Stabio, Svizzera","+41 76 569 10 37","Lun 09-18:30 | Mar 09-18:30 | Mer 09-18:30 | Gio 09-18:30 | Ven 09-18:30 | Sab 09-12 | Dom chiuso","http://www.ayurharmony.ch/","45.848123999999999","8.9338909999999991"
"Flyer Gym A.S.D.","Fitness","Via Daniele Manin, 3, 21100 Varese VA, Italia","+39 351 678 4473","Lun chiuso | Mar chiuso | Mer chiuso | Gio chiuso | Ven chiuso | Sab chiuso | Dom chiuso","http://www.flyergym.it/","45.837135000000004","8.8027890000000006"
"Football Club Chiasso 2005 SA","Fitness","Via 1. Agosto, 6830 Chiasso, Svizzera","+41 91 683 81 53","Orari da verificare","","45.834004","9.015841"
"Football Supporters","Fitness","Via Monte S. Michele, 71, 21049 Tradate VA, Italia","+39 0331 167 5534","Lun 14:30-19 | Mar 10-12:30, 14:30-19 | Mer 10-12:30, 14:30-19 | Gio 10-12:30, 14:30-19 | Ven 10-12:30, 14:30-19 | Sab 10-12:30, 14:30-19 | Dom chiuso","https://www.instagram.com/footballsupporters_tradate/","45.696452999999998","8.9132459999999991"
"For ME Fitness Club","Fitness","Via Cortina d'Ampezzo, 3, 21100 Varese VA, Italia","+39 0332 169 1256","Lun 07-21:30 | Mar 07-21:30 | Mer 07-21:30 | Gio 07-21:30 | Ven 07-21:30 | Sab 07-14:30 | Dom chiuso","http://www.formefitness.it/","45.820191000000001","8.8413989999999991"
"Forus Luino LE BETULLE","Nuoto","Via Lugano, 41, 21016 Luino VA, Italia","+39 0332 180 7150","Lun 07-21 | Mar 07-21 | Mer 07-21 | Gio 07-21 | Ven 07-21 | Sab 08:15-18 | Dom 09-14","https://www.forusitalia.it/viviforus","46.005648999999998","8.7585730000000002"
"Four Fit A.S.D.","Fitness","Via Papa Giovanni XXIII, 21010 Cardano al Campo VA, Italia","+39 0331 692035","Lun 07:30-22 | Mar 07:30-22 | Mer 07:30-22 | Gio 07:30-22 | Ven 07:30-22 | Sab 09-15 | Dom 09-13","","45.652515999999999","8.7609729999999999"
"Francesco Tutino Personal Trainer & Coach Nutrizionista","Fitness","Via Giacomo e Filippo Ciani 14, 6900 Lugano, Svizzera","+41 76 402 12 79","Lun 07-21 | Mar 07-21 | Mer 07-21 | Gio 07-21 | Ven 07-21 | Sab 07-13 | Dom chiuso","http://www.francescotutinopt.com/","46.014657999999997","8.9607759999999992"
"Francisco Vega Personal Trainer - Studio PT Varese","Fitness","Via Giuseppe Garibaldi, 9, 21020 Bardello VA, Italia","+39 392 839 1865","Lun 09:30-22:30 | Mar 09:30-22:30 | Mer 09:30-22:30 | Gio 09:30-22:30 | Ven 09:30-22:30 | Sab 09:30-22:30 | Dom 09:30-22:30","https://sites.google.com/view/f-vega-personal-trainer-varese/home","45.834282000000002","8.698264"
"Free Time Club","Fitness","Via delle Scuole 34, 6900 Lugano, Svizzera","+41 91 973 30 50","Lun chiuso | Mar chiuso | Mer chiuso | Gio chiuso | Ven chiuso | Sab 09-16 | Dom chiuso","http://www.freetimeclub.ch/","46.009222000000001","8.9666940000000004"
